{
  "generatedAt": "2026-03-08T14:02:17.199Z",
  "count": 1449,
  "cities": [
    {
      "name": "אבו גוש",
      "normalizedName": "אבו גוש",
      "lat": 31.80686,
      "lng": 35.11038,
      "zone": "בית שמש",
      "countdown": 90
    },
    {
      "name": "אבו סנאן",
      "normalizedName": "אבו סנאן",
      "lat": 32.96225,
      "lng": 35.16781,
      "zone": "גליל עליון",
      "countdown": 30
    },
    {
      "name": "אבו קרינאת",
      "normalizedName": "אבו קרינאת",
      "lat": 31.1253,
      "lng": 34.96838,
      "zone": "דרום הנגב",
      "countdown": 90
    },
    {
      "name": "אבו תלול",
      "normalizedName": "אבו תלול",
      "lat": 31.19078,
      "lng": 34.91612,
      "zone": "דרום הנגב",
      "countdown": 90
    },
    {
      "name": "אבטליון",
      "normalizedName": "אבטליון",
      "lat": 32.83684,
      "lng": 35.35085,
      "zone": "גליל תחתון",
      "countdown": 60
    },
    {
      "name": "אביאל",
      "normalizedName": "אביאל",
      "lat": 32.53142,
      "lng": 34.99265,
      "zone": "מנשה",
      "countdown": 90
    },
    {
      "name": "אביבים",
      "normalizedName": "אביבים",
      "lat": 33.0881,
      "lng": 35.47187,
      "zone": "קו העימות",
      "countdown": null
    },
    {
      "name": "אביגדור",
      "normalizedName": "אביגדור",
      "lat": 31.70919,
      "lng": 34.74202,
      "zone": "לכיש",
      "countdown": 45
    },
    {
      "name": "אביגיל",
      "normalizedName": "אביגיל",
      "lat": 31.40263,
      "lng": 35.14131,
      "zone": "יהודה",
      "countdown": 90
    },
    {
      "name": "אביחיל",
      "normalizedName": "אביחיל",
      "lat": 32.3508,
      "lng": 34.8721,
      "zone": "חפר",
      "countdown": 90
    },
    {
      "name": "אביעזר",
      "normalizedName": "אביעזר",
      "lat": 31.68141,
      "lng": 35.01515,
      "zone": "בית שמש",
      "countdown": 90
    },
    {
      "name": "אבירים",
      "normalizedName": "אבירים",
      "lat": 33.03959,
      "lng": 35.28822,
      "zone": "קו העימות",
      "countdown": null
    },
    {
      "name": "אביתר",
      "normalizedName": "אביתר",
      "lat": 32.11976,
      "lng": 35.27673,
      "zone": "שומרון",
      "countdown": 90
    },
    {
      "name": "אבן יהודה",
      "normalizedName": "אבן יהודה",
      "lat": 32.2721,
      "lng": 34.8855,
      "zone": "שרון",
      "countdown": 90
    },
    {
      "name": "אבן מנחם",
      "normalizedName": "אבן מנחם",
      "lat": 33.07479,
      "lng": 35.29266,
      "zone": "קו העימות",
      "countdown": null
    },
    {
      "name": "אבן ספיר",
      "normalizedName": "אבן ספיר",
      "lat": 31.76361,
      "lng": 35.13393,
      "zone": "בית שמש",
      "countdown": 90
    },
    {
      "name": "אבן שמואל",
      "normalizedName": "אבן שמואל",
      "lat": 31.57495,
      "lng": 34.76537,
      "zone": "לכיש",
      "countdown": 30
    },
    {
      "name": "אבני איתן",
      "normalizedName": "אבני איתן",
      "lat": 32.82269,
      "lng": 35.76613,
      "zone": "גולן",
      "countdown": null
    },
    {
      "name": "אבני חפץ",
      "normalizedName": "אבני חפץ",
      "lat": 32.28701,
      "lng": 35.0766,
      "zone": "שומרון",
      "countdown": 90
    },
    {
      "name": "אבנת",
      "normalizedName": "אבנת",
      "lat": 31.67752,
      "lng": 35.43718,
      "zone": "ים המלח",
      "countdown": 90
    },
    {
      "name": "אבשלום",
      "normalizedName": "אבשלום",
      "lat": 31.19313,
      "lng": 34.33042,
      "zone": "עוטף עזה",
      "countdown": 15
    },
    {
      "name": "אדורה",
      "normalizedName": "אדורה",
      "lat": 31.55103,
      "lng": 35.01582,
      "zone": "יהודה",
      "countdown": 90
    },
    {
      "name": "אדורים",
      "normalizedName": "אדורים",
      "lat": 31.48581,
      "lng": 35.04325,
      "zone": "יהודה",
      "countdown": 90
    },
    {
      "name": "אדמית",
      "normalizedName": "אדמית",
      "lat": 33.07944,
      "lng": 35.20884,
      "zone": "קו העימות",
      "countdown": null
    },
    {
      "name": "אדרת",
      "normalizedName": "אדרת",
      "lat": 31.66034,
      "lng": 34.99438,
      "zone": "בית שמש",
      "countdown": 90
    },
    {
      "name": "אודים",
      "normalizedName": "אודים",
      "lat": 32.26466,
      "lng": 34.84463,
      "zone": "שרון",
      "countdown": 90
    },
    {
      "name": "אודם",
      "normalizedName": "אודם",
      "lat": 33.1942,
      "lng": 35.74914,
      "zone": "גולן",
      "countdown": null
    },
    {
      "name": "אום אל פחם",
      "normalizedName": "אום אל פחם",
      "lat": 32.52644,
      "lng": 35.15556,
      "zone": "ואדי ערה",
      "countdown": 90
    },
    {
      "name": "אום אל קוטוף",
      "normalizedName": "אום אל קוטוף",
      "lat": 32.46886,
      "lng": 35.06025,
      "zone": "ואדי ערה",
      "countdown": 90
    },
    {
      "name": "אום בטין",
      "normalizedName": "אום בטין",
      "lat": 31.2694,
      "lng": 34.87887,
      "zone": "דרום הנגב",
      "countdown": 90
    },
    {
      "name": "אופקים",
      "normalizedName": "אופקים",
      "lat": 31.30838,
      "lng": 34.63281,
      "zone": "מערב הנגב",
      "countdown": 45
    },
    {
      "name": "אור הגנוז",
      "normalizedName": "אור הגנוז",
      "lat": 33.00492,
      "lng": 35.44608,
      "zone": "גליל עליון",
      "countdown": 30
    },
    {
      "name": "אור הנר",
      "normalizedName": "אור הנר",
      "lat": 31.55781,
      "lng": 34.59999,
      "zone": "עוטף עזה",
      "countdown": 15
    },
    {
      "name": "אור יהודה",
      "normalizedName": "אור יהודה",
      "lat": 32.0292,
      "lng": 34.84842,
      "zone": "דן",
      "countdown": 90
    },
    {
      "name": "אור עקיבא",
      "normalizedName": "אור עקיבא",
      "lat": 32.50231,
      "lng": 34.9219,
      "zone": "מנשה",
      "countdown": 90
    },
    {
      "name": "אורה",
      "normalizedName": "אורה",
      "lat": 31.75307,
      "lng": 35.15256,
      "zone": "בית שמש",
      "countdown": 90
    },
    {
      "name": "אורות",
      "normalizedName": "אורות",
      "lat": 31.74219,
      "lng": 34.73428,
      "zone": "לכיש",
      "countdown": 45
    },
    {
      "name": "אורטל",
      "normalizedName": "אורטל",
      "lat": 33.08481,
      "lng": 35.76076,
      "zone": "גולן",
      "countdown": null
    },
    {
      "name": "אורים",
      "normalizedName": "אורים",
      "lat": 31.30445,
      "lng": 34.52336,
      "zone": "מערב הנגב",
      "countdown": 30
    },
    {
      "name": "אורנים",
      "normalizedName": "אורנים",
      "lat": 32.7127,
      "lng": 35.10832,
      "zone": "קריות",
      "countdown": 60
    },
    {
      "name": "אורנית",
      "normalizedName": "אורנית",
      "lat": 32.12886,
      "lng": 34.99039,
      "zone": "שומרון",
      "countdown": 90
    },
    {
      "name": "אושה",
      "normalizedName": "אושה",
      "lat": 32.79629,
      "lng": 35.11356,
      "zone": "קריות",
      "countdown": 60
    },
    {
      "name": "אזור",
      "normalizedName": "אזור",
      "lat": 32.02304,
      "lng": 34.8088,
      "zone": "דן",
      "countdown": 90
    },
    {
      "name": "אזור תעשייה אלון התבור",
      "normalizedName": "אזור תעשייה אלון התבור",
      "lat": 32.63534,
      "lng": 35.36067,
      "zone": "תבור",
      "countdown": 60
    },
    {
      "name": "אזור תעשייה אפק ולב הארץ",
      "normalizedName": "אזור תעשייה אפק ולב הארץ",
      "lat": 32.10878,
      "lng": 34.95365,
      "zone": "ירקון",
      "countdown": 90
    },
    {
      "name": "אזור תעשייה אריאל",
      "normalizedName": "אזור תעשייה אריאל",
      "lat": 32.09407,
      "lng": 35.12347,
      "zone": "שומרון",
      "countdown": 90
    },
    {
      "name": "אזור תעשייה באר טוביה",
      "normalizedName": "אזור תעשייה באר טוביה",
      "lat": 31.72413,
      "lng": 34.75072,
      "zone": "לכיש",
      "countdown": 45
    },
    {
      "name": "אזור תעשייה בני יהודה",
      "normalizedName": "אזור תעשייה בני יהודה",
      "lat": 32.80274,
      "lng": 35.71711,
      "zone": "גולן",
      "countdown": null
    },
    {
      "name": "אזור תעשייה בר-לב",
      "normalizedName": "אזור תעשייה בר-לב",
      "lat": 32.90567,
      "lng": 35.19401,
      "zone": "גליל תחתון",
      "countdown": 60
    },
    {
      "name": "אזור תעשייה בראון",
      "normalizedName": "אזור תעשייה בראון",
      "lat": 32.24738,
      "lng": 35.16862,
      "zone": "שומרון",
      "countdown": 90
    },
    {
      "name": "אזור תעשייה ברוש",
      "normalizedName": "אזור תעשייה ברוש",
      "lat": 31.73547,
      "lng": 34.95497,
      "zone": "בית שמש",
      "countdown": 90
    },
    {
      "name": "אזור תעשייה ברקן",
      "normalizedName": "אזור תעשייה ברקן",
      "lat": 32.1052,
      "lng": 35.11999,
      "zone": "שומרון",
      "countdown": 90
    },
    {
      "name": "אזור תעשייה גדרה",
      "normalizedName": "אזור תעשייה גדרה",
      "lat": 31.7996,
      "lng": 34.76775,
      "zone": "דרום השפלה",
      "countdown": 60
    },
    {
      "name": "אזור תעשייה דימונה",
      "normalizedName": "אזור תעשייה דימונה",
      "lat": 31.05943,
      "lng": 35.01285,
      "zone": "דרום הנגב",
      "countdown": 90
    },
    {
      "name": "אזור תעשייה הדרומי אשקלון",
      "normalizedName": "אזור תעשייה הדרומי אשקלון",
      "lat": 31.63324,
      "lng": 34.54133,
      "zone": "מערב לכיש",
      "countdown": 30
    },
    {
      "name": "אזור תעשייה הר טוב - צרעה",
      "normalizedName": "אזור תעשייה הר טוב - צרעה",
      "lat": 31.76792,
      "lng": 34.99138,
      "zone": "בית שמש",
      "countdown": 90
    },
    {
      "name": "אזור תעשייה חבל מודיעין שוהם",
      "normalizedName": "אזור תעשייה חבל מודיעין שוהם",
      "lat": 32.01334,
      "lng": 34.96004,
      "zone": "ירקון",
      "countdown": 90
    },
    {
      "name": "אזור תעשייה יקנעם עילית",
      "normalizedName": "אזור תעשייה יקנעם עילית",
      "lat": 32.66393,
      "lng": 35.105,
      "zone": "מנשה",
      "countdown": 90
    },
    {
      "name": "אזור תעשייה כנות",
      "normalizedName": "אזור תעשייה כנות",
      "lat": 31.80146,
      "lng": 34.75947,
      "zone": "לכיש",
      "countdown": 60
    },
    {
      "name": "אזור תעשייה כפר יונה",
      "normalizedName": "אזור תעשייה כפר יונה",
      "lat": 32.31918,
      "lng": 34.91034,
      "zone": "חפר",
      "countdown": 90
    },
    {
      "name": "אזור תעשייה כרמיאל",
      "normalizedName": "אזור תעשייה כרמיאל",
      "lat": 32.92386,
      "lng": 35.3247,
      "zone": "גליל עליון",
      "countdown": 30
    },
    {
      "name": "אזור תעשייה מבוא כרמל",
      "normalizedName": "אזור תעשייה מבוא כרמל",
      "lat": 32.61649,
      "lng": 35.07088,
      "zone": "מנשה",
      "countdown": 90
    },
    {
      "name": "אזור תעשייה מבואות הגלבוע",
      "normalizedName": "אזור תעשייה מבואות הגלבוע",
      "lat": 32.56808,
      "lng": 35.26696,
      "zone": "תבור",
      "countdown": 60
    },
    {
      "name": "אזור תעשייה מישור אדומים",
      "normalizedName": "אזור תעשייה מישור אדומים",
      "lat": 31.79502,
      "lng": 35.33715,
      "zone": "יהודה",
      "countdown": 90
    },
    {
      "name": "אזור תעשייה מיתרים",
      "normalizedName": "אזור תעשייה מיתרים",
      "lat": 31.36903,
      "lng": 35.00477,
      "zone": "יהודה",
      "countdown": 90
    },
    {
      "name": "אזור תעשייה נ.ע.מ",
      "normalizedName": "אזור תעשייה נ.ע.מ",
      "lat": 31.41373,
      "lng": 34.61461,
      "zone": "מערב הנגב",
      "countdown": 30
    },
    {
      "name": "אזור תעשייה ניר עציון",
      "normalizedName": "אזור תעשייה ניר עציון",
      "lat": 32.70378,
      "lng": 34.97156,
      "zone": "חוף הכרמל",
      "countdown": 60
    },
    {
      "name": "אזור תעשייה נשר - רמלה",
      "normalizedName": "אזור תעשייה נשר - רמלה",
      "lat": 31.92195,
      "lng": 34.88963,
      "zone": "השפלה",
      "countdown": 90
    },
    {
      "name": "אזור תעשייה עד הלום",
      "normalizedName": "אזור תעשייה עד הלום",
      "lat": 31.76243,
      "lng": 34.66307,
      "zone": "לכיש",
      "countdown": 45
    },
    {
      "name": "אזור תעשייה עידן הנגב",
      "normalizedName": "אזור תעשייה עידן הנגב",
      "lat": 31.37745,
      "lng": 34.78681,
      "zone": "מרכז הנגב",
      "countdown": 45
    },
    {
      "name": "אזור תעשייה עמק חפר",
      "normalizedName": "אזור תעשייה עמק חפר",
      "lat": 32.40107,
      "lng": 34.89614,
      "zone": "חפר",
      "countdown": 90
    },
    {
      "name": "אזור תעשייה צ.ח.ר",
      "normalizedName": "אזור תעשייה צ.ח.ר",
      "lat": 32.97111,
      "lng": 35.56753,
      "zone": "גליל עליון",
      "countdown": 30
    },
    {
      "name": "אזור תעשייה ציפורית",
      "normalizedName": "אזור תעשייה ציפורית",
      "lat": 32.75891,
      "lng": 35.31658,
      "zone": "תבור",
      "countdown": 60
    },
    {
      "name": "אזור תעשייה צפוני אשקלון",
      "normalizedName": "אזור תעשייה צפוני אשקלון",
      "lat": 31.66919,
      "lng": 34.60095,
      "zone": "מערב לכיש",
      "countdown": 30
    },
    {
      "name": "אזור תעשייה קדמת גליל",
      "normalizedName": "אזור תעשייה קדמת גליל",
      "lat": 32.78484,
      "lng": 35.4643,
      "zone": "גליל תחתון",
      "countdown": 60
    },
    {
      "name": "אזור תעשייה קיסריה",
      "normalizedName": "אזור תעשייה קיסריה",
      "lat": 32.48282,
      "lng": 34.94819,
      "zone": "מנשה",
      "countdown": 90
    },
    {
      "name": "אזור תעשייה קריית ביאליק",
      "normalizedName": "אזור תעשייה קריית ביאליק",
      "lat": 32.86718,
      "lng": 35.0992,
      "zone": "קריות",
      "countdown": 60
    },
    {
      "name": "אזור תעשייה קריית גת",
      "normalizedName": "אזור תעשייה קריית גת",
      "lat": 31.59441,
      "lng": 34.78865,
      "zone": "לכיש",
      "countdown": 45
    },
    {
      "name": "אזור תעשייה רבדים",
      "normalizedName": "אזור תעשייה רבדים",
      "lat": 31.78559,
      "lng": 34.82201,
      "zone": "לכיש",
      "countdown": 60
    },
    {
      "name": "אזור תעשייה רותם",
      "normalizedName": "אזור תעשייה רותם",
      "lat": 31.0601,
      "lng": 35.19502,
      "zone": "דרום הנגב",
      "countdown": 90
    },
    {
      "name": "אזור תעשייה רמת דלתון",
      "normalizedName": "אזור תעשייה רמת דלתון",
      "lat": 33.02652,
      "lng": 35.47969,
      "zone": "קו העימות",
      "countdown": null
    },
    {
      "name": "אזור תעשייה שחורת",
      "normalizedName": "אזור תעשייה שחורת",
      "lat": 29.59891,
      "lng": 34.97192,
      "zone": "אילת",
      "countdown": 30
    },
    {
      "name": "אזור תעשייה שחק",
      "normalizedName": "אזור תעשייה שחק",
      "lat": 32.47507,
      "lng": 35.17976,
      "zone": "שומרון",
      "countdown": 90
    },
    {
      "name": "אזור תעשייה שער בנימין",
      "normalizedName": "אזור תעשייה שער בנימין",
      "lat": 31.86621,
      "lng": 35.26201,
      "zone": "שומרון",
      "countdown": 90
    },
    {
      "name": "אזור תעשייה שער נעמן",
      "normalizedName": "אזור תעשייה שער נעמן",
      "lat": 32.8805,
      "lng": 35.09761,
      "zone": "גליל עליון",
      "countdown": 60
    },
    {
      "name": "אזור תעשייה תימורים",
      "normalizedName": "אזור תעשייה תימורים",
      "lat": 31.72444,
      "lng": 34.75933,
      "zone": "לכיש",
      "countdown": 45
    },
    {
      "name": "אזור תעשייה תרדיון",
      "normalizedName": "אזור תעשייה תרדיון",
      "lat": 32.86738,
      "lng": 35.27327,
      "zone": "גליל תחתון",
      "countdown": 60
    },
    {
      "name": "אחווה",
      "normalizedName": "אחווה",
      "lat": 31.74378,
      "lng": 34.76912,
      "zone": "לכיש",
      "countdown": 45
    },
    {
      "name": "אחוזם",
      "normalizedName": "אחוזם",
      "lat": 31.55297,
      "lng": 34.77078,
      "zone": "לכיש",
      "countdown": 30
    },
    {
      "name": "אחוזת ברק",
      "normalizedName": "אחוזת ברק",
      "lat": 32.64324,
      "lng": 35.33818,
      "zone": "תבור",
      "countdown": 60
    },
    {
      "name": "אחיה",
      "normalizedName": "אחיה",
      "lat": 32.06156,
      "lng": 35.32727,
      "zone": "שומרון",
      "countdown": 90
    },
    {
      "name": "אחיהוד",
      "normalizedName": "אחיהוד",
      "lat": 32.90618,
      "lng": 35.17578,
      "zone": "גליל תחתון",
      "countdown": 60
    },
    {
      "name": "אחיטוב",
      "normalizedName": "אחיטוב",
      "lat": 32.38809,
      "lng": 34.98949,
      "zone": "חפר",
      "countdown": 90
    },
    {
      "name": "אחיסמך",
      "normalizedName": "אחיסמך",
      "lat": 31.93487,
      "lng": 34.9073,
      "zone": "השפלה",
      "countdown": 90
    },
    {
      "name": "אחיעזר",
      "normalizedName": "אחיעזר",
      "lat": 31.98071,
      "lng": 34.87165,
      "zone": "השפלה",
      "countdown": 90
    },
    {
      "name": "איבטין",
      "normalizedName": "איבטין",
      "lat": 32.76131,
      "lng": 35.11365,
      "zone": "קריות",
      "countdown": 60
    },
    {
      "name": "איבי הנחל",
      "normalizedName": "איבי הנחל",
      "lat": 31.60302,
      "lng": 35.21846,
      "zone": "יהודה",
      "countdown": 90
    },
    {
      "name": "איזור תעשייה מילואות צפון",
      "normalizedName": "איזור תעשייה מילואות צפון",
      "lat": 33.06686,
      "lng": 35.10866,
      "zone": "קו העימות",
      "countdown": null
    },
    {
      "name": "אייל",
      "normalizedName": "אייל",
      "lat": 32.21017,
      "lng": 34.97964,
      "zone": "חפר",
      "countdown": 90
    },
    {
      "name": "איילת השחר",
      "normalizedName": "איילת השחר",
      "lat": 33.02307,
      "lng": 35.58005,
      "zone": "גליל עליון",
      "countdown": 30
    },
    {
      "name": "איירפורט סיטי",
      "normalizedName": "איירפורט סיטי",
      "lat": 31.98874,
      "lng": 34.91233,
      "zone": "ירקון",
      "countdown": 90
    },
    {
      "name": "אילון",
      "normalizedName": "אילון",
      "lat": 33.06241,
      "lng": 35.21834,
      "zone": "קו העימות",
      "countdown": null
    },
    {
      "name": "אילות",
      "normalizedName": "אילות",
      "lat": 29.58068,
      "lng": 34.96375,
      "zone": "אילת",
      "countdown": 30
    },
    {
      "name": "אילניה",
      "normalizedName": "אילניה",
      "lat": 32.75618,
      "lng": 35.40773,
      "zone": "גליל תחתון",
      "countdown": 60
    },
    {
      "name": "אילת",
      "normalizedName": "אילת",
      "lat": 29.53716,
      "lng": 34.93683,
      "zone": "אילת",
      "countdown": 30
    },
    {
      "name": "אירוס",
      "normalizedName": "אירוס",
      "lat": 31.92927,
      "lng": 34.77661,
      "zone": "השפלה",
      "countdown": 90
    },
    {
      "name": "איתמר",
      "normalizedName": "איתמר",
      "lat": 32.15904,
      "lng": 35.34944,
      "zone": "שומרון",
      "countdown": 90
    },
    {
      "name": "איתן",
      "normalizedName": "איתן",
      "lat": 31.57234,
      "lng": 34.74757,
      "zone": "לכיש",
      "countdown": 30
    },
    {
      "name": "אכסאל",
      "normalizedName": "אכסאל",
      "lat": 32.67828,
      "lng": 35.31978,
      "zone": "תבור",
      "countdown": 60
    },
    {
      "name": "אל סייד",
      "normalizedName": "אל סייד",
      "lat": 31.28786,
      "lng": 34.90352,
      "zone": "דרום הנגב",
      "countdown": 90
    },
    {
      "name": "אל עזי",
      "normalizedName": "אל עזי",
      "lat": 31.72143,
      "lng": 34.79799,
      "zone": "לכיש",
      "countdown": 45
    },
    {
      "name": "אל עמארני, אל מסק",
      "normalizedName": "אל עמארני, אל מסק",
      "lat": 30.79827,
      "lng": 35.23446,
      "zone": "ערבה",
      "countdown": 90
    },
    {
      "name": "אל עריאן",
      "normalizedName": "אל עריאן",
      "lat": 32.49818,
      "lng": 35.12491,
      "zone": "ואדי ערה",
      "countdown": 90
    },
    {
      "name": "אל פורעה",
      "normalizedName": "אל פורעה",
      "lat": 31.22164,
      "lng": 35.16423,
      "zone": "דרום הנגב",
      "countdown": 90
    },
    {
      "name": "אל רום",
      "normalizedName": "אל רום",
      "lat": 33.18052,
      "lng": 35.77074,
      "zone": "גולן",
      "countdown": null
    },
    {
      "name": "אלומה",
      "normalizedName": "אלומה",
      "lat": 31.65247,
      "lng": 34.74319,
      "zone": "לכיש",
      "countdown": 45
    },
    {
      "name": "אלומות",
      "normalizedName": "אלומות",
      "lat": 32.70849,
      "lng": 35.54533,
      "zone": "גליל תחתון",
      "countdown": 60
    },
    {
      "name": "אלון",
      "normalizedName": "אלון",
      "lat": 31.83059,
      "lng": 35.35624,
      "zone": "יהודה",
      "countdown": 90
    },
    {
      "name": "אלון הגליל",
      "normalizedName": "אלון הגליל",
      "lat": 32.75974,
      "lng": 35.21967,
      "zone": "תבור",
      "countdown": 60
    },
    {
      "name": "אלון מורה",
      "normalizedName": "אלון מורה",
      "lat": 32.23243,
      "lng": 35.33612,
      "zone": "שומרון",
      "countdown": 90
    },
    {
      "name": "אלון שבות",
      "normalizedName": "אלון שבות",
      "lat": 31.65421,
      "lng": 35.12629,
      "zone": "יהודה",
      "countdown": 90
    },
    {
      "name": "אלוני אבא",
      "normalizedName": "אלוני אבא",
      "lat": 32.72972,
      "lng": 35.17071,
      "zone": "תבור",
      "countdown": 60
    },
    {
      "name": "אלוני הבשן",
      "normalizedName": "אלוני הבשן",
      "lat": 33.04267,
      "lng": 35.83775,
      "zone": "גולן",
      "countdown": null
    },
    {
      "name": "אלוני יצחק",
      "normalizedName": "אלוני יצחק",
      "lat": 32.51028,
      "lng": 35.00455,
      "zone": "מנשה",
      "countdown": 90
    },
    {
      "name": "אלונים",
      "normalizedName": "אלונים",
      "lat": 32.71629,
      "lng": 35.14834,
      "zone": "תבור",
      "countdown": 60
    },
    {
      "name": "אלי עד",
      "normalizedName": "אלי עד",
      "lat": 32.80556,
      "lng": 35.73501,
      "zone": "גולן",
      "countdown": null
    },
    {
      "name": "אליאב",
      "normalizedName": "אליאב",
      "lat": 31.52953,
      "lng": 34.93119,
      "zone": "יהודה",
      "countdown": 60
    },
    {
      "name": "אליכין",
      "normalizedName": "אליכין",
      "lat": 32.40771,
      "lng": 34.92188,
      "zone": "חפר",
      "countdown": 90
    },
    {
      "name": "אליפז ומכרות תמנע",
      "normalizedName": "אליפז ומכרות תמנע",
      "lat": 29.77744,
      "lng": 34.99384,
      "zone": "ערבה",
      "countdown": 90
    },
    {
      "name": "אליפלט",
      "normalizedName": "אליפלט",
      "lat": 32.94762,
      "lng": 35.54931,
      "zone": "גליל עליון",
      "countdown": 30
    },
    {
      "name": "אליקים",
      "normalizedName": "אליקים",
      "lat": 32.63269,
      "lng": 35.06846,
      "zone": "מנשה",
      "countdown": 90
    },
    {
      "name": "אלישיב",
      "normalizedName": "אלישיב",
      "lat": 32.3808,
      "lng": 34.90944,
      "zone": "חפר",
      "countdown": 90
    },
    {
      "name": "אלישמע",
      "normalizedName": "אלישמע",
      "lat": 32.15239,
      "lng": 34.92836,
      "zone": "שרון",
      "countdown": 90
    },
    {
      "name": "אלמגור",
      "normalizedName": "אלמגור",
      "lat": 32.91211,
      "lng": 35.60205,
      "zone": "קצרין",
      "countdown": 30
    },
    {
      "name": "אלמוג",
      "normalizedName": "אלמוג",
      "lat": 31.78846,
      "lng": 35.46099,
      "zone": "בקעה",
      "countdown": 90
    },
    {
      "name": "אלעד",
      "normalizedName": "אלעד",
      "lat": 32.05107,
      "lng": 34.95639,
      "zone": "ירקון",
      "countdown": 90
    },
    {
      "name": "אלעזר",
      "normalizedName": "אלעזר",
      "lat": 31.6627,
      "lng": 35.13964,
      "zone": "יהודה",
      "countdown": 90
    },
    {
      "name": "אלפי מנשה",
      "normalizedName": "אלפי מנשה",
      "lat": 32.17149,
      "lng": 35.00998,
      "zone": "שומרון",
      "countdown": 90
    },
    {
      "name": "אלקוש",
      "normalizedName": "אלקוש",
      "lat": 33.03443,
      "lng": 35.32429,
      "zone": "קו העימות",
      "countdown": null
    },
    {
      "name": "אלקנה",
      "normalizedName": "אלקנה",
      "lat": 32.11239,
      "lng": 35.03425,
      "zone": "שומרון",
      "countdown": 90
    },
    {
      "name": "אמונים",
      "normalizedName": "אמונים",
      "lat": 31.74395,
      "lng": 34.67572,
      "zone": "לכיש",
      "countdown": 45
    },
    {
      "name": "אמירים",
      "normalizedName": "אמירים",
      "lat": 32.93829,
      "lng": 35.45108,
      "zone": "גליל עליון",
      "countdown": 30
    },
    {
      "name": "אמנון",
      "normalizedName": "אמנון",
      "lat": 32.90455,
      "lng": 35.57218,
      "zone": "גליל עליון",
      "countdown": 30
    },
    {
      "name": "אמץ",
      "normalizedName": "אמץ",
      "lat": 32.36841,
      "lng": 34.99401,
      "zone": "חפר",
      "countdown": 90
    },
    {
      "name": "אניעם",
      "normalizedName": "אניעם",
      "lat": 32.95786,
      "lng": 35.74255,
      "zone": "קצרין",
      "countdown": 15
    },
    {
      "name": "אעבלין",
      "normalizedName": "אעבלין",
      "lat": 32.82234,
      "lng": 35.18956,
      "zone": "גליל תחתון",
      "countdown": 60
    },
    {
      "name": "אעירה השחר",
      "normalizedName": "אעירה השחר",
      "lat": 31.95027,
      "lng": 35.36899,
      "zone": "שומרון",
      "countdown": 90
    },
    {
      "name": "אפיק",
      "normalizedName": "אפיק",
      "lat": 32.77856,
      "lng": 35.70195,
      "zone": "גולן",
      "countdown": null
    },
    {
      "name": "אפיקים",
      "normalizedName": "אפיקים",
      "lat": 32.6799,
      "lng": 35.57647,
      "zone": "גליל תחתון",
      "countdown": 60
    },
    {
      "name": "אפק",
      "normalizedName": "אפק",
      "lat": 32.83893,
      "lng": 35.12596,
      "zone": "גליל תחתון",
      "countdown": 60
    },
    {
      "name": "אפקה",
      "normalizedName": "אפקה",
      "lat": 31.46805,
      "lng": 35.03779,
      "zone": "יהודה",
      "countdown": 90
    },
    {
      "name": "אפרת",
      "normalizedName": "אפרת",
      "lat": 31.66579,
      "lng": 35.15914,
      "zone": "יהודה",
      "countdown": 90
    },
    {
      "name": "ארבל",
      "normalizedName": "ארבל",
      "lat": 32.81316,
      "lng": 35.48265,
      "zone": "גליל תחתון",
      "countdown": 60
    },
    {
      "name": "ארגמן",
      "normalizedName": "ארגמן",
      "lat": 32.17225,
      "lng": 35.52261,
      "zone": "בקעה",
      "countdown": 90
    },
    {
      "name": "ארז",
      "normalizedName": "ארז",
      "lat": 31.55903,
      "lng": 34.56603,
      "zone": "עוטף עזה",
      "countdown": 15
    },
    {
      "name": "אריאל",
      "normalizedName": "אריאל",
      "lat": 32.10347,
      "lng": 35.18797,
      "zone": "שומרון",
      "countdown": 90
    },
    {
      "name": "ארסוף",
      "normalizedName": "ארסוף",
      "lat": 32.20902,
      "lng": 34.81596,
      "zone": "שרון",
      "countdown": 90
    },
    {
      "name": "אש קודש",
      "normalizedName": "אש קודש",
      "lat": 32.06633,
      "lng": 35.33639,
      "zone": "בקעה",
      "countdown": 90
    },
    {
      "name": "אשבול",
      "normalizedName": "אשבול",
      "lat": 31.44724,
      "lng": 34.66765,
      "zone": "מערב הנגב",
      "countdown": 30
    },
    {
      "name": "אשבל",
      "normalizedName": "אשבל",
      "lat": 32.87649,
      "lng": 35.30466,
      "zone": "גליל תחתון",
      "countdown": 60
    },
    {
      "name": "אשדוד - א,ב,ד,ה",
      "normalizedName": "אשדוד - א,ב,ד,ה",
      "lat": 31.80473,
      "lng": 34.64694,
      "zone": "לכיש",
      "countdown": 45
    },
    {
      "name": "אשדוד - איזור תעשייה צפוני",
      "normalizedName": "אשדוד - איזור תעשייה צפוני",
      "lat": 31.83016,
      "lng": 34.65851,
      "zone": "לכיש",
      "countdown": 45
    },
    {
      "name": "אשדוד - ג,ו,ז",
      "normalizedName": "אשדוד - ג,ו,ז",
      "lat": 31.79663,
      "lng": 34.66155,
      "zone": "לכיש",
      "countdown": 45
    },
    {
      "name": "אשדוד - ח,ט,י,יג,יד,טז",
      "normalizedName": "אשדוד - ח,ט,י,יג,יד,טז",
      "lat": 31.77791,
      "lng": 34.65338,
      "zone": "לכיש",
      "countdown": 45
    },
    {
      "name": "אשדוד -יא,יב,טו,יז,מרינה,סיטי",
      "normalizedName": "אשדוד -יא,יב,טו,יז,מרינה,סיטי",
      "lat": 31.78362,
      "lng": 34.63321,
      "zone": "לכיש",
      "countdown": 45
    },
    {
      "name": "אשדות יעקב",
      "normalizedName": "אשדות יעקב",
      "lat": 32.66108,
      "lng": 35.57989,
      "zone": "גליל תחתון",
      "countdown": 60
    },
    {
      "name": "אשחר",
      "normalizedName": "אשחר",
      "lat": 32.8863,
      "lng": 35.29929,
      "zone": "גליל תחתון",
      "countdown": 60
    },
    {
      "name": "אשכולות",
      "normalizedName": "אשכולות",
      "lat": 31.39189,
      "lng": 34.90076,
      "zone": "יהודה",
      "countdown": 60
    },
    {
      "name": "אשל הנשיא",
      "normalizedName": "אשל הנשיא",
      "lat": 31.32586,
      "lng": 34.69619,
      "zone": "מערב הנגב",
      "countdown": 45
    },
    {
      "name": "אשלים",
      "normalizedName": "אשלים",
      "lat": 30.97155,
      "lng": 34.71544,
      "zone": "דרום הנגב",
      "countdown": 90
    },
    {
      "name": "אשקלון - דרום",
      "normalizedName": "אשקלון - דרום",
      "lat": 31.66262,
      "lng": 34.56837,
      "zone": "מערב לכיש",
      "countdown": 30
    },
    {
      "name": "אשקלון - צפון",
      "normalizedName": "אשקלון - צפון",
      "lat": 31.69206,
      "lng": 34.58917,
      "zone": "מערב לכיש",
      "countdown": 30
    },
    {
      "name": "אשרת",
      "normalizedName": "אשרת",
      "lat": 32.97156,
      "lng": 35.15686,
      "zone": "גליל עליון",
      "countdown": 30
    },
    {
      "name": "אשתאול",
      "normalizedName": "אשתאול",
      "lat": 31.78141,
      "lng": 35.00849,
      "zone": "בית שמש",
      "countdown": 90
    },
    {
      "name": "אשתמוע",
      "normalizedName": "אשתמוע",
      "lat": 31.39297,
      "lng": 35.01516,
      "zone": "יהודה",
      "countdown": 90
    },
    {
      "name": "אתר דודאים",
      "normalizedName": "אתר דודאים",
      "lat": 31.31228,
      "lng": 34.734,
      "zone": "מרכז הנגב",
      "countdown": 45
    },
    {
      "name": "אתר ההנצחה גולני",
      "normalizedName": "אתר ההנצחה גולני",
      "lat": 32.77665,
      "lng": 35.4097,
      "zone": "גליל תחתון",
      "countdown": 60
    },
    {
      "name": "באקה אל גרבייה",
      "normalizedName": "באקה אל גרבייה",
      "lat": 32.41581,
      "lng": 35.03757,
      "zone": "ואדי ערה",
      "countdown": 90
    },
    {
      "name": "באר אורה",
      "normalizedName": "באר אורה",
      "lat": 29.70837,
      "lng": 34.98564,
      "zone": "ערבה",
      "countdown": 90
    },
    {
      "name": "באר גנים",
      "normalizedName": "באר גנים",
      "lat": 31.69941,
      "lng": 34.60738,
      "zone": "מערב לכיש",
      "countdown": 30
    },
    {
      "name": "באר טוביה",
      "normalizedName": "באר טוביה",
      "lat": 31.73364,
      "lng": 34.72009,
      "zone": "לכיש",
      "countdown": 45
    },
    {
      "name": "באר יעקב",
      "normalizedName": "באר יעקב",
      "lat": 31.9443,
      "lng": 34.84484,
      "zone": "השפלה",
      "countdown": 90
    },
    {
      "name": "באר מילכה",
      "normalizedName": "באר מילכה",
      "lat": 30.93289,
      "lng": 34.40734,
      "zone": "דרום הנגב",
      "countdown": 60
    },
    {
      "name": "באר שבע - דרום",
      "normalizedName": "באר שבע - דרום",
      "lat": 31.24145,
      "lng": 34.77619,
      "zone": "מרכז הנגב",
      "countdown": 60
    },
    {
      "name": "באר שבע - מזרח",
      "normalizedName": "באר שבע - מזרח",
      "lat": 31.23453,
      "lng": 34.82015,
      "zone": "מרכז הנגב",
      "countdown": 60
    },
    {
      "name": "באר שבע - מערב",
      "normalizedName": "באר שבע - מערב",
      "lat": 31.26997,
      "lng": 34.77403,
      "zone": "מרכז הנגב",
      "countdown": 60
    },
    {
      "name": "באר שבע - צפון",
      "normalizedName": "באר שבע - צפון",
      "lat": 31.27246,
      "lng": 34.81385,
      "zone": "מרכז הנגב",
      "countdown": 60
    },
    {
      "name": "בארות יצחק",
      "normalizedName": "בארות יצחק",
      "lat": 32.04175,
      "lng": 34.91019,
      "zone": "ירקון",
      "countdown": 90
    },
    {
      "name": "בארותיים",
      "normalizedName": "בארותיים",
      "lat": 32.3229,
      "lng": 34.98566,
      "zone": "חפר",
      "countdown": 90
    },
    {
      "name": "בארי",
      "normalizedName": "בארי",
      "lat": 31.42381,
      "lng": 34.4914,
      "zone": "עוטף עזה",
      "countdown": 15
    },
    {
      "name": "בוסתן הגליל",
      "normalizedName": "בוסתן הגליל",
      "lat": 32.951,
      "lng": 35.08195,
      "zone": "גליל עליון",
      "countdown": 30
    },
    {
      "name": "בועיינה-נוג'ידאת",
      "normalizedName": "בועיינה-נוג'ידאת",
      "lat": 32.80808,
      "lng": 35.36656,
      "zone": "גליל תחתון",
      "countdown": 60
    },
    {
      "name": "בוקעתא",
      "normalizedName": "בוקעתא",
      "lat": 33.20487,
      "lng": 35.78103,
      "zone": "גולן",
      "countdown": null
    },
    {
      "name": "בורגתה",
      "normalizedName": "בורגתה",
      "lat": 32.32477,
      "lng": 34.96219,
      "zone": "חפר",
      "countdown": 90
    },
    {
      "name": "בחן",
      "normalizedName": "בחן",
      "lat": 32.35069,
      "lng": 35.01881,
      "zone": "חפר",
      "countdown": 90
    },
    {
      "name": "בטחה",
      "normalizedName": "בטחה",
      "lat": 31.3431,
      "lng": 34.63209,
      "zone": "מערב הנגב",
      "countdown": 45
    },
    {
      "name": "בי\"ס כרמים בנימינה",
      "normalizedName": "בי\"ס כרמים בנימינה",
      "lat": 32.54632,
      "lng": 34.95654,
      "zone": "מנשה",
      "countdown": 90
    },
    {
      "name": "ביצרון",
      "normalizedName": "ביצרון",
      "lat": 31.79605,
      "lng": 34.72858,
      "zone": "לכיש",
      "countdown": 60
    },
    {
      "name": "ביר אלמכסור",
      "normalizedName": "ביר אלמכסור",
      "lat": 32.78516,
      "lng": 35.22438,
      "zone": "גליל תחתון",
      "countdown": 60
    },
    {
      "name": "ביר הדאג'",
      "normalizedName": "ביר הדאג'",
      "lat": 31.03024,
      "lng": 34.71692,
      "zone": "דרום הנגב",
      "countdown": 90
    },
    {
      "name": "ביריה",
      "normalizedName": "ביריה",
      "lat": 32.98154,
      "lng": 35.49982,
      "zone": "גליל עליון",
      "countdown": 30
    },
    {
      "name": "בית אורן",
      "normalizedName": "בית אורן",
      "lat": 32.73168,
      "lng": 35.00498,
      "zone": "יערות הכרמל",
      "countdown": 60
    },
    {
      "name": "בית אל",
      "normalizedName": "בית אל",
      "lat": 31.94054,
      "lng": 35.22192,
      "zone": "שומרון",
      "countdown": 90
    },
    {
      "name": "בית אלעזרי",
      "normalizedName": "בית אלעזרי",
      "lat": 31.84465,
      "lng": 34.80482,
      "zone": "דרום השפלה",
      "countdown": 60
    },
    {
      "name": "בית אלפא וחפציבה",
      "normalizedName": "בית אלפא וחפציבה",
      "lat": 32.51226,
      "lng": 35.43704,
      "zone": "בקעת בית שאן",
      "countdown": 60
    },
    {
      "name": "בית אריה",
      "normalizedName": "בית אריה",
      "lat": 32.03709,
      "lng": 35.05007,
      "zone": "שומרון",
      "countdown": 90
    },
    {
      "name": "בית ברל",
      "normalizedName": "בית ברל",
      "lat": 32.20127,
      "lng": 34.9242,
      "zone": "שרון",
      "countdown": 90
    },
    {
      "name": "בית ג'אן",
      "normalizedName": "בית ג'אן",
      "lat": 32.96547,
      "lng": 35.37137,
      "zone": "גליל עליון",
      "countdown": 30
    },
    {
      "name": "בית גוברין",
      "normalizedName": "בית גוברין",
      "lat": 31.61198,
      "lng": 34.89442,
      "zone": "לכיש",
      "countdown": 60
    },
    {
      "name": "בית גמליאל",
      "normalizedName": "בית גמליאל",
      "lat": 31.8581,
      "lng": 34.76162,
      "zone": "דרום השפלה",
      "countdown": 60
    },
    {
      "name": "בית דגן",
      "normalizedName": "בית דגן",
      "lat": 31.99707,
      "lng": 34.82762,
      "zone": "השפלה",
      "countdown": 90
    },
    {
      "name": "בית הברכה",
      "normalizedName": "בית הברכה",
      "lat": 31.63162,
      "lng": 35.13165,
      "zone": "יהודה",
      "countdown": 90
    },
    {
      "name": "בית הגדי",
      "normalizedName": "בית הגדי",
      "lat": 31.42987,
      "lng": 34.60624,
      "zone": "מערב הנגב",
      "countdown": 30
    },
    {
      "name": "בית הלוי",
      "normalizedName": "בית הלוי",
      "lat": 32.35386,
      "lng": 34.93214,
      "zone": "חפר",
      "countdown": 90
    },
    {
      "name": "בית הלל",
      "normalizedName": "בית הלל",
      "lat": 33.20743,
      "lng": 35.60452,
      "zone": "קו העימות",
      "countdown": null
    },
    {
      "name": "בית העלמין החדש נהריה",
      "normalizedName": "בית העלמין החדש נהריה",
      "lat": 33.00509,
      "lng": 35.14635,
      "zone": "קו העימות",
      "countdown": 30
    },
    {
      "name": "בית העלמין החדש עכו",
      "normalizedName": "בית העלמין החדש עכו",
      "lat": 32.91468,
      "lng": 35.13587,
      "zone": "גליל עליון",
      "countdown": 30
    },
    {
      "name": "בית העמק",
      "normalizedName": "בית העמק",
      "lat": 32.97023,
      "lng": 35.14471,
      "zone": "גליל עליון",
      "countdown": 30
    },
    {
      "name": "בית הערבה",
      "normalizedName": "בית הערבה",
      "lat": 31.80837,
      "lng": 35.47771,
      "zone": "בקעה",
      "countdown": 90
    },
    {
      "name": "בית השיטה",
      "normalizedName": "בית השיטה",
      "lat": 32.55017,
      "lng": 35.4384,
      "zone": "בקעת בית שאן",
      "countdown": 60
    },
    {
      "name": "בית זית",
      "normalizedName": "בית זית",
      "lat": 31.78209,
      "lng": 35.16137,
      "zone": "בית שמש",
      "countdown": 90
    },
    {
      "name": "בית זרע",
      "normalizedName": "בית זרע",
      "lat": 32.68783,
      "lng": 35.5739,
      "zone": "גליל תחתון",
      "countdown": 60
    },
    {
      "name": "בית חג\"י",
      "normalizedName": "בית חג\"י",
      "lat": 31.49057,
      "lng": 35.07879,
      "zone": "יהודה",
      "countdown": 90
    },
    {
      "name": "בית חגלה",
      "normalizedName": "בית חגלה",
      "lat": 31.82235,
      "lng": 35.50416,
      "zone": "בקעה",
      "countdown": 90
    },
    {
      "name": "בית חורון",
      "normalizedName": "בית חורון",
      "lat": 31.87662,
      "lng": 35.1277,
      "zone": "שומרון",
      "countdown": 90
    },
    {
      "name": "בית חלקיה",
      "normalizedName": "בית חלקיה",
      "lat": 31.79262,
      "lng": 34.81204,
      "zone": "דרום השפלה",
      "countdown": 60
    },
    {
      "name": "בית חנן",
      "normalizedName": "בית חנן",
      "lat": 31.93617,
      "lng": 34.77636,
      "zone": "השפלה",
      "countdown": 90
    },
    {
      "name": "בית חנניה",
      "normalizedName": "בית חנניה",
      "lat": 32.52908,
      "lng": 34.92572,
      "zone": "מנשה",
      "countdown": 90
    },
    {
      "name": "בית חרות",
      "normalizedName": "בית חרות",
      "lat": 32.37923,
      "lng": 34.86713,
      "zone": "חפר",
      "countdown": 90
    },
    {
      "name": "בית חשמונאי",
      "normalizedName": "בית חשמונאי",
      "lat": 31.88884,
      "lng": 34.91986,
      "zone": "השפלה",
      "countdown": 90
    },
    {
      "name": "בית יהושע",
      "normalizedName": "בית יהושע",
      "lat": 32.26072,
      "lng": 34.86307,
      "zone": "שרון",
      "countdown": 90
    },
    {
      "name": "בית יוסף",
      "normalizedName": "בית יוסף",
      "lat": 32.55964,
      "lng": 35.55354,
      "zone": "בקעת בית שאן",
      "countdown": 60
    },
    {
      "name": "בית ינאי",
      "normalizedName": "בית ינאי",
      "lat": 32.3825,
      "lng": 34.86389,
      "zone": "חפר",
      "countdown": 90
    },
    {
      "name": "בית יצחק - שער חפר",
      "normalizedName": "בית יצחק - שער חפר",
      "lat": 32.335,
      "lng": 34.89158,
      "zone": "חפר",
      "countdown": 90
    },
    {
      "name": "בית ירח",
      "normalizedName": "בית ירח",
      "lat": 32.71434,
      "lng": 35.57435,
      "zone": "גליל תחתון",
      "countdown": 60
    },
    {
      "name": "בית יתיר",
      "normalizedName": "בית יתיר",
      "lat": 31.3644,
      "lng": 35.11184,
      "zone": "יהודה",
      "countdown": 90
    },
    {
      "name": "בית לחם הגלילית",
      "normalizedName": "בית לחם הגלילית",
      "lat": 32.73438,
      "lng": 35.19026,
      "zone": "תבור",
      "countdown": 60
    },
    {
      "name": "בית מאיר",
      "normalizedName": "בית מאיר",
      "lat": 31.79421,
      "lng": 35.03737,
      "zone": "בית שמש",
      "countdown": 90
    },
    {
      "name": "בית נחמיה",
      "normalizedName": "בית נחמיה",
      "lat": 31.97532,
      "lng": 34.9549,
      "zone": "ירקון",
      "countdown": 90
    },
    {
      "name": "בית ניר",
      "normalizedName": "בית ניר",
      "lat": 31.64838,
      "lng": 34.87347,
      "zone": "לכיש",
      "countdown": 60
    },
    {
      "name": "בית נקופה",
      "normalizedName": "בית נקופה",
      "lat": 31.80377,
      "lng": 35.1267,
      "zone": "בית שמש",
      "countdown": 90
    },
    {
      "name": "בית סוהר צלמון",
      "normalizedName": "בית סוהר צלמון",
      "lat": 32.87171,
      "lng": 35.4476,
      "zone": "גליל תחתון",
      "countdown": 60
    },
    {
      "name": "בית סוהר קישון",
      "normalizedName": "בית סוהר קישון",
      "lat": 32.72679,
      "lng": 35.09173,
      "zone": "קריות",
      "countdown": 60
    },
    {
      "name": "בית ספר שדה מירון",
      "normalizedName": "בית ספר שדה מירון",
      "lat": 33.00955,
      "lng": 35.39346,
      "zone": "קו העימות",
      "countdown": null
    },
    {
      "name": "בית עובד",
      "normalizedName": "בית עובד",
      "lat": 31.92429,
      "lng": 34.76679,
      "zone": "השפלה",
      "countdown": 90
    },
    {
      "name": "בית עוזיאל",
      "normalizedName": "בית עוזיאל",
      "lat": 31.87084,
      "lng": 34.90536,
      "zone": "השפלה",
      "countdown": 90
    },
    {
      "name": "בית עזרא",
      "normalizedName": "בית עזרא",
      "lat": 31.73691,
      "lng": 34.65478,
      "zone": "לכיש",
      "countdown": 45
    },
    {
      "name": "בית עלמין מורשה",
      "normalizedName": "בית עלמין מורשה",
      "lat": 32.12069,
      "lng": 34.85496,
      "zone": "שרון",
      "countdown": 90
    },
    {
      "name": "בית עלמין תל רגב",
      "normalizedName": "בית עלמין תל רגב",
      "lat": 32.76879,
      "lng": 35.12516,
      "zone": "קריות",
      "countdown": 60
    },
    {
      "name": "בית עריף",
      "normalizedName": "בית עריף",
      "lat": 31.99539,
      "lng": 34.93586,
      "zone": "ירקון",
      "countdown": 90
    },
    {
      "name": "בית צבי",
      "normalizedName": "בית צבי",
      "lat": 32.71816,
      "lng": 34.9697,
      "zone": "חוף הכרמל",
      "countdown": 60
    },
    {
      "name": "בית קמה",
      "normalizedName": "בית קמה",
      "lat": 31.4428,
      "lng": 34.76122,
      "zone": "מרכז הנגב",
      "countdown": 45
    },
    {
      "name": "בית קשת",
      "normalizedName": "בית קשת",
      "lat": 32.71802,
      "lng": 35.3955,
      "zone": "גליל תחתון",
      "countdown": 60
    },
    {
      "name": "בית רימון",
      "normalizedName": "בית רימון",
      "lat": 32.78127,
      "lng": 35.32707,
      "zone": "גליל תחתון",
      "countdown": 60
    },
    {
      "name": "בית שאן",
      "normalizedName": "בית שאן",
      "lat": 32.49944,
      "lng": 35.50057,
      "zone": "בקעת בית שאן",
      "countdown": 60
    },
    {
      "name": "בית שמש",
      "normalizedName": "בית שמש",
      "lat": 31.72752,
      "lng": 34.99042,
      "zone": "בית שמש",
      "countdown": 90
    },
    {
      "name": "בית שערים",
      "normalizedName": "בית שערים",
      "lat": 32.69461,
      "lng": 35.17708,
      "zone": "תבור",
      "countdown": 60
    },
    {
      "name": "בית שקמה",
      "normalizedName": "בית שקמה",
      "lat": 31.63787,
      "lng": 34.61124,
      "zone": "מערב לכיש",
      "countdown": 30
    },
    {
      "name": "ביתן אהרן",
      "normalizedName": "ביתן אהרן",
      "lat": 32.36456,
      "lng": 34.86967,
      "zone": "חפר",
      "countdown": 90
    },
    {
      "name": "ביתר עילית",
      "normalizedName": "ביתר עילית",
      "lat": 31.70135,
      "lng": 35.11622,
      "zone": "יהודה",
      "countdown": 90
    },
    {
      "name": "בלפוריה",
      "normalizedName": "בלפוריה",
      "lat": 32.62972,
      "lng": 35.29693,
      "zone": "תבור",
      "countdown": 60
    },
    {
      "name": "בן זכאי",
      "normalizedName": "בן זכאי",
      "lat": 31.85652,
      "lng": 34.72702,
      "zone": "דרום השפלה",
      "countdown": 60
    },
    {
      "name": "בן עמי",
      "normalizedName": "בן עמי",
      "lat": 33.0063,
      "lng": 35.12453,
      "zone": "קו העימות",
      "countdown": null
    },
    {
      "name": "בן שמן",
      "normalizedName": "בן שמן",
      "lat": 31.95137,
      "lng": 34.92001,
      "zone": "השפלה",
      "countdown": 90
    },
    {
      "name": "בני אדם",
      "normalizedName": "בני אדם",
      "lat": 31.84437,
      "lng": 35.30527,
      "zone": "יהודה",
      "countdown": 90
    },
    {
      "name": "בני ברק",
      "normalizedName": "בני ברק",
      "lat": 32.08874,
      "lng": 34.83419,
      "zone": "דן",
      "countdown": 90
    },
    {
      "name": "בני דקלים",
      "normalizedName": "בני דקלים",
      "lat": 31.51804,
      "lng": 34.91824,
      "zone": "יהודה",
      "countdown": 60
    },
    {
      "name": "בני דרום",
      "normalizedName": "בני דרום",
      "lat": 31.81978,
      "lng": 34.69134,
      "zone": "דרום השפלה",
      "countdown": 45
    },
    {
      "name": "בני דרור",
      "normalizedName": "בני דרור",
      "lat": 32.26205,
      "lng": 34.89911,
      "zone": "חפר",
      "countdown": 90
    },
    {
      "name": "בני יהודה וגבעת יואב",
      "normalizedName": "בני יהודה וגבעת יואב",
      "lat": 32.79884,
      "lng": 35.68438,
      "zone": "גולן",
      "countdown": 15
    },
    {
      "name": "בני נצרים",
      "normalizedName": "בני נצרים",
      "lat": 31.14525,
      "lng": 34.31794,
      "zone": "עוטף עזה",
      "countdown": 30
    },
    {
      "name": "בני עטרות",
      "normalizedName": "בני עטרות",
      "lat": 32.02374,
      "lng": 34.91124,
      "zone": "ירקון",
      "countdown": 90
    },
    {
      "name": "בני עי'ש",
      "normalizedName": "בני עי'ש",
      "lat": 31.79127,
      "lng": 34.75754,
      "zone": "לכיש",
      "countdown": 60
    },
    {
      "name": "בני ציון",
      "normalizedName": "בני ציון",
      "lat": 32.21886,
      "lng": 34.86462,
      "zone": "שרון",
      "countdown": 90
    },
    {
      "name": "בני ראם",
      "normalizedName": "בני ראם",
      "lat": 31.76861,
      "lng": 34.79115,
      "zone": "דרום השפלה",
      "countdown": 60
    },
    {
      "name": "בניה",
      "normalizedName": "בניה",
      "lat": 31.8436,
      "lng": 34.75048,
      "zone": "דרום השפלה",
      "countdown": 60
    },
    {
      "name": "בנימינה",
      "normalizedName": "בנימינה",
      "lat": 32.52133,
      "lng": 34.94528,
      "zone": "מנשה",
      "countdown": 90
    },
    {
      "name": "בסמת טבעון",
      "normalizedName": "בסמת טבעון",
      "lat": 32.74536,
      "lng": 35.1492,
      "zone": "קריות",
      "countdown": 60
    },
    {
      "name": "בענה",
      "normalizedName": "בענה",
      "lat": 32.92792,
      "lng": 35.2732,
      "zone": "גליל עליון",
      "countdown": 30
    },
    {
      "name": "בצרה",
      "normalizedName": "בצרה",
      "lat": 32.21326,
      "lng": 34.8796,
      "zone": "שרון",
      "countdown": 90
    },
    {
      "name": "בצת",
      "normalizedName": "בצת",
      "lat": 33.07109,
      "lng": 35.13027,
      "zone": "קו העימות",
      "countdown": null
    },
    {
      "name": "בקוע",
      "normalizedName": "בקוע",
      "lat": 31.82881,
      "lng": 34.92444,
      "zone": "בית שמש",
      "countdown": 90
    },
    {
      "name": "בקעות",
      "normalizedName": "בקעות",
      "lat": 32.24268,
      "lng": 35.45555,
      "zone": "בקעה",
      "countdown": 90
    },
    {
      "name": "בר גיורא",
      "normalizedName": "בר גיורא",
      "lat": 31.73068,
      "lng": 35.07119,
      "zone": "בית שמש",
      "countdown": 90
    },
    {
      "name": "בר יוחאי",
      "normalizedName": "בר יוחאי",
      "lat": 32.99777,
      "lng": 35.44828,
      "zone": "גליל עליון",
      "countdown": 30
    },
    {
      "name": "בר כוכבא",
      "normalizedName": "בר כוכבא",
      "lat": 31.71342,
      "lng": 35.15915,
      "zone": "יהודה",
      "countdown": 90
    },
    {
      "name": "ברוכין",
      "normalizedName": "ברוכין",
      "lat": 32.08134,
      "lng": 35.09179,
      "zone": "שומרון",
      "countdown": 90
    },
    {
      "name": "ברור חיל",
      "normalizedName": "ברור חיל",
      "lat": 31.55873,
      "lng": 34.64693,
      "zone": "מערב הנגב",
      "countdown": 30
    },
    {
      "name": "ברוש",
      "normalizedName": "ברוש",
      "lat": 31.3706,
      "lng": 34.63133,
      "zone": "מערב הנגב",
      "countdown": 30
    },
    {
      "name": "ברטעה",
      "normalizedName": "ברטעה",
      "lat": 32.47215,
      "lng": 35.09514,
      "zone": "ואדי ערה",
      "countdown": 90
    },
    {
      "name": "ברכיה",
      "normalizedName": "ברכיה",
      "lat": 31.67076,
      "lng": 34.62609,
      "zone": "מערב לכיש",
      "countdown": 30
    },
    {
      "name": "ברעם",
      "normalizedName": "ברעם",
      "lat": 33.05684,
      "lng": 35.43476,
      "zone": "קו העימות",
      "countdown": null
    },
    {
      "name": "ברקאי",
      "normalizedName": "ברקאי",
      "lat": 32.47589,
      "lng": 35.03003,
      "zone": "ואדי ערה",
      "countdown": 90
    },
    {
      "name": "ברקן",
      "normalizedName": "ברקן",
      "lat": 32.11005,
      "lng": 35.1069,
      "zone": "שומרון",
      "countdown": 90
    },
    {
      "name": "ברקת",
      "normalizedName": "ברקת",
      "lat": 32.0158,
      "lng": 34.94621,
      "zone": "ירקון",
      "countdown": 90
    },
    {
      "name": "בת הדר",
      "normalizedName": "בת הדר",
      "lat": 31.64588,
      "lng": 34.59547,
      "zone": "מערב לכיש",
      "countdown": 30
    },
    {
      "name": "בת חן",
      "normalizedName": "בת חן",
      "lat": 32.36002,
      "lng": 34.87267,
      "zone": "חפר",
      "countdown": 90
    },
    {
      "name": "בת חפר",
      "normalizedName": "בת חפר",
      "lat": 32.33544,
      "lng": 35.0131,
      "zone": "חפר",
      "countdown": 90
    },
    {
      "name": "בת ים",
      "normalizedName": "בת ים",
      "lat": 32.01465,
      "lng": 34.74938,
      "zone": "דן",
      "countdown": 90
    },
    {
      "name": "בת עין",
      "normalizedName": "בת עין",
      "lat": 31.65914,
      "lng": 35.09696,
      "zone": "יהודה",
      "countdown": 90
    },
    {
      "name": "בת שלמה",
      "normalizedName": "בת שלמה",
      "lat": 32.60052,
      "lng": 35.00201,
      "zone": "חוף הכרמל",
      "countdown": 60
    },
    {
      "name": "בתי מלון ים המלח",
      "normalizedName": "בתי מלון ים המלח",
      "lat": 31.16856,
      "lng": 35.36734,
      "zone": "ים המלח",
      "countdown": 90
    },
    {
      "name": "בתרונות",
      "normalizedName": "בתרונות",
      "lat": 32.31964,
      "lng": 35.54198,
      "zone": "בקעה",
      "countdown": 90
    },
    {
      "name": "ג'דידה מכר",
      "normalizedName": "ג'דידה מכר",
      "lat": 32.92695,
      "lng": 35.13745,
      "zone": "גליל עליון",
      "countdown": 30
    },
    {
      "name": "ג'וליס",
      "normalizedName": "ג'וליס",
      "lat": 32.94271,
      "lng": 35.18373,
      "zone": "גליל עליון",
      "countdown": 30
    },
    {
      "name": "ג'לג'וליה",
      "normalizedName": "ג'לג'וליה",
      "lat": 32.15055,
      "lng": 34.95111,
      "zone": "שרון",
      "countdown": 90
    },
    {
      "name": "ג'סר א-זרקא",
      "normalizedName": "ג'סר א-זרקא",
      "lat": 32.53904,
      "lng": 34.91213,
      "zone": "מנשה",
      "countdown": 90
    },
    {
      "name": "ג'ש - גוש חלב",
      "normalizedName": "ג'ש - גוש חלב",
      "lat": 33.024,
      "lng": 35.44554,
      "zone": "קו העימות",
      "countdown": null
    },
    {
      "name": "ג'ת",
      "normalizedName": "ג'ת",
      "lat": 32.3984,
      "lng": 35.03558,
      "zone": "ואדי ערה",
      "countdown": 90
    },
    {
      "name": "גאולי תימן",
      "normalizedName": "גאולי תימן",
      "lat": 32.39119,
      "lng": 34.90145,
      "zone": "חפר",
      "countdown": 90
    },
    {
      "name": "גאולים",
      "normalizedName": "גאולים",
      "lat": 32.29898,
      "lng": 34.95042,
      "zone": "חפר",
      "countdown": 90
    },
    {
      "name": "גאליה",
      "normalizedName": "גאליה",
      "lat": 31.88435,
      "lng": 34.766,
      "zone": "השפלה",
      "countdown": 60
    },
    {
      "name": "גבולות",
      "normalizedName": "גבולות",
      "lat": 31.21174,
      "lng": 34.46579,
      "zone": "מערב הנגב",
      "countdown": 30
    },
    {
      "name": "גבים, מכללת ספיר",
      "normalizedName": "גבים, מכללת ספיר",
      "lat": 31.50711,
      "lng": 34.59732,
      "zone": "עוטף עזה",
      "countdown": 15
    },
    {
      "name": "גבע בנימין",
      "normalizedName": "גבע בנימין",
      "lat": 31.84909,
      "lng": 35.28053,
      "zone": "שומרון",
      "countdown": 90
    },
    {
      "name": "גבע כרמל",
      "normalizedName": "גבע כרמל",
      "lat": 32.66288,
      "lng": 34.9547,
      "zone": "חוף הכרמל",
      "countdown": 60
    },
    {
      "name": "גבעון החדשה",
      "normalizedName": "גבעון החדשה",
      "lat": 31.84814,
      "lng": 35.15751,
      "zone": "שומרון",
      "countdown": 90
    },
    {
      "name": "גבעות",
      "normalizedName": "גבעות",
      "lat": 31.67925,
      "lng": 35.10181,
      "zone": "יהודה",
      "countdown": 90
    },
    {
      "name": "גבעות בר",
      "normalizedName": "גבעות בר",
      "lat": 31.35621,
      "lng": 34.75828,
      "zone": "מרכז הנגב",
      "countdown": 45
    },
    {
      "name": "גבעות עדן",
      "normalizedName": "גבעות עדן",
      "lat": 31.66284,
      "lng": 35.01447,
      "zone": "בית שמש",
      "countdown": 90
    },
    {
      "name": "גבעת אבני",
      "normalizedName": "גבעת אבני",
      "lat": 32.77449,
      "lng": 35.43795,
      "zone": "גליל תחתון",
      "countdown": 60
    },
    {
      "name": "גבעת אלה",
      "normalizedName": "גבעת אלה",
      "lat": 32.72099,
      "lng": 35.24556,
      "zone": "תבור",
      "countdown": 60
    },
    {
      "name": "גבעת אסף",
      "normalizedName": "גבעת אסף",
      "lat": 31.90961,
      "lng": 35.24935,
      "zone": "שומרון",
      "countdown": 90
    },
    {
      "name": "גבעת ברנר",
      "normalizedName": "גבעת ברנר",
      "lat": 31.86543,
      "lng": 34.80426,
      "zone": "דרום השפלה",
      "countdown": 90
    },
    {
      "name": "גבעת הראל",
      "normalizedName": "גבעת הראל",
      "lat": 32.05937,
      "lng": 35.27387,
      "zone": "שומרון",
      "countdown": 90
    },
    {
      "name": "גבעת הרואה",
      "normalizedName": "גבעת הרואה",
      "lat": 32.05407,
      "lng": 35.26277,
      "zone": "שומרון",
      "countdown": 90
    },
    {
      "name": "גבעת השלושה",
      "normalizedName": "גבעת השלושה",
      "lat": 32.09765,
      "lng": 34.92024,
      "zone": "ירקון",
      "countdown": 90
    },
    {
      "name": "גבעת וולפסון",
      "normalizedName": "גבעת וולפסון",
      "lat": 32.72066,
      "lng": 35.01601,
      "zone": "יערות הכרמל",
      "countdown": 60
    },
    {
      "name": "גבעת וושינגטון",
      "normalizedName": "גבעת וושינגטון",
      "lat": 31.81738,
      "lng": 34.72931,
      "zone": "דרום השפלה",
      "countdown": 60
    },
    {
      "name": "גבעת זאב",
      "normalizedName": "גבעת זאב",
      "lat": 31.8506,
      "lng": 35.16576,
      "zone": "ירושלים",
      "countdown": 90
    },
    {
      "name": "גבעת חיים איחוד",
      "normalizedName": "גבעת חיים איחוד",
      "lat": 32.39954,
      "lng": 34.93316,
      "zone": "חפר",
      "countdown": 90
    },
    {
      "name": "גבעת חיים מאוחד",
      "normalizedName": "גבעת חיים מאוחד",
      "lat": 32.39065,
      "lng": 34.93144,
      "zone": "חפר",
      "countdown": 90
    },
    {
      "name": "גבעת חן",
      "normalizedName": "גבעת חן",
      "lat": 32.16323,
      "lng": 34.87203,
      "zone": "שרון",
      "countdown": 90
    },
    {
      "name": "גבעת יערים",
      "normalizedName": "גבעת יערים",
      "lat": 31.78723,
      "lng": 35.08847,
      "zone": "בית שמש",
      "countdown": 90
    },
    {
      "name": "גבעת ישעיהו",
      "normalizedName": "גבעת ישעיהו",
      "lat": 31.67083,
      "lng": 34.94669,
      "zone": "בית שמש",
      "countdown": 60
    },
    {
      "name": "גבעת כ'ח",
      "normalizedName": "גבעת כ'ח",
      "lat": 32.03094,
      "lng": 34.93664,
      "zone": "ירקון",
      "countdown": 90
    },
    {
      "name": "גבעת ניל'י",
      "normalizedName": "גבעת ניל'י",
      "lat": 32.54805,
      "lng": 35.04189,
      "zone": "מנשה",
      "countdown": 90
    },
    {
      "name": "גבעת עדה",
      "normalizedName": "גבעת עדה",
      "lat": 32.52111,
      "lng": 35.01152,
      "zone": "מנשה",
      "countdown": 90
    },
    {
      "name": "גבעת עוז",
      "normalizedName": "גבעת עוז",
      "lat": 32.55544,
      "lng": 35.19808,
      "zone": "מנשה",
      "countdown": 90
    },
    {
      "name": "גבעת פורת יוסף",
      "normalizedName": "גבעת פורת יוסף",
      "lat": 32.21377,
      "lng": 35.37005,
      "zone": "שומרון",
      "countdown": 90
    },
    {
      "name": "גבעת שמואל",
      "normalizedName": "גבעת שמואל",
      "lat": 32.07754,
      "lng": 34.8523,
      "zone": "דן",
      "countdown": 90
    },
    {
      "name": "גבעת שפירא",
      "normalizedName": "גבעת שפירא",
      "lat": 32.35754,
      "lng": 34.87644,
      "zone": "חפר",
      "countdown": 90
    },
    {
      "name": "גבעתי",
      "normalizedName": "גבעתי",
      "lat": 31.73174,
      "lng": 34.68037,
      "zone": "לכיש",
      "countdown": 45
    },
    {
      "name": "גבעתיים",
      "normalizedName": "גבעתיים",
      "lat": 32.07012,
      "lng": 34.80996,
      "zone": "דן",
      "countdown": 90
    },
    {
      "name": "גברעם",
      "normalizedName": "גברעם",
      "lat": 31.59023,
      "lng": 34.61131,
      "zone": "עוטף עזה",
      "countdown": 15
    },
    {
      "name": "גבת",
      "normalizedName": "גבת",
      "lat": 32.67413,
      "lng": 35.2128,
      "zone": "תבור",
      "countdown": 60
    },
    {
      "name": "גדות",
      "normalizedName": "גדות",
      "lat": 33.01865,
      "lng": 35.61879,
      "zone": "גליל עליון",
      "countdown": 30
    },
    {
      "name": "גדעונה",
      "normalizedName": "גדעונה",
      "lat": 32.54932,
      "lng": 35.35859,
      "zone": "תבור",
      "countdown": 60
    },
    {
      "name": "גדרה",
      "normalizedName": "גדרה",
      "lat": 31.81109,
      "lng": 34.77705,
      "zone": "דרום השפלה",
      "countdown": 60
    },
    {
      "name": "גונן",
      "normalizedName": "גונן",
      "lat": 33.1229,
      "lng": 35.64607,
      "zone": "קו העימות",
      "countdown": 15
    },
    {
      "name": "גופנה",
      "normalizedName": "גופנה",
      "lat": 31.97946,
      "lng": 35.12591,
      "zone": "שומרון",
      "countdown": 90
    },
    {
      "name": "גורן",
      "normalizedName": "גורן",
      "lat": 33.05777,
      "lng": 35.23934,
      "zone": "קו העימות",
      "countdown": null
    },
    {
      "name": "גורנות הגליל",
      "normalizedName": "גורנות הגליל",
      "lat": 33.0599,
      "lng": 35.24932,
      "zone": "קו העימות",
      "countdown": null
    },
    {
      "name": "גזית",
      "normalizedName": "גזית",
      "lat": 32.63806,
      "lng": 35.44694,
      "zone": "תבור",
      "countdown": 60
    },
    {
      "name": "גזר",
      "normalizedName": "גזר",
      "lat": 31.87641,
      "lng": 34.92081,
      "zone": "השפלה",
      "countdown": 90
    },
    {
      "name": "גיאה",
      "normalizedName": "גיאה",
      "lat": 31.62736,
      "lng": 34.6065,
      "zone": "מערב לכיש",
      "countdown": 30
    },
    {
      "name": "גיבתון",
      "normalizedName": "גיבתון",
      "lat": 31.88844,
      "lng": 34.7999,
      "zone": "דרום השפלה",
      "countdown": 90
    },
    {
      "name": "גיזו",
      "normalizedName": "גיזו",
      "lat": 31.80457,
      "lng": 34.93842,
      "zone": "בית שמש",
      "countdown": 90
    },
    {
      "name": "גילת",
      "normalizedName": "גילת",
      "lat": 31.32998,
      "lng": 34.6526,
      "zone": "מערב הנגב",
      "countdown": 45
    },
    {
      "name": "גינוסר",
      "normalizedName": "גינוסר",
      "lat": 32.8472,
      "lng": 35.52331,
      "zone": "גליל תחתון",
      "countdown": 60
    },
    {
      "name": "גינתון",
      "normalizedName": "גינתון",
      "lat": 31.96374,
      "lng": 34.91433,
      "zone": "השפלה",
      "countdown": 90
    },
    {
      "name": "גיתה",
      "normalizedName": "גיתה",
      "lat": 32.96743,
      "lng": 35.24793,
      "zone": "גליל עליון",
      "countdown": 30
    },
    {
      "name": "גיתית",
      "normalizedName": "גיתית",
      "lat": 32.09964,
      "lng": 35.39784,
      "zone": "בקעה",
      "countdown": 90
    },
    {
      "name": "גלאון",
      "normalizedName": "גלאון",
      "lat": 31.63264,
      "lng": 34.84765,
      "zone": "לכיש",
      "countdown": 45
    },
    {
      "name": "גלגל",
      "normalizedName": "גלגל",
      "lat": 31.99955,
      "lng": 35.44736,
      "zone": "בקעה",
      "countdown": 90
    },
    {
      "name": "גלעד",
      "normalizedName": "גלעד",
      "lat": 32.55766,
      "lng": 35.07636,
      "zone": "מנשה",
      "countdown": 90
    },
    {
      "name": "גמזו",
      "normalizedName": "גמזו",
      "lat": 31.92944,
      "lng": 34.93978,
      "zone": "השפלה",
      "countdown": 90
    },
    {
      "name": "גן הדרום",
      "normalizedName": "גן הדרום",
      "lat": 31.80445,
      "lng": 34.70271,
      "zone": "דרום השפלה",
      "countdown": 60
    },
    {
      "name": "גן השומרון",
      "normalizedName": "גן השומרון",
      "lat": 32.46181,
      "lng": 34.99851,
      "zone": "מנשה",
      "countdown": 90
    },
    {
      "name": "גן חיים",
      "normalizedName": "גן חיים",
      "lat": 32.19472,
      "lng": 34.90575,
      "zone": "שרון",
      "countdown": 90
    },
    {
      "name": "גן יאשיה",
      "normalizedName": "גן יאשיה",
      "lat": 32.34833,
      "lng": 34.99371,
      "zone": "חפר",
      "countdown": 90
    },
    {
      "name": "גן יבנה",
      "normalizedName": "גן יבנה",
      "lat": 31.78615,
      "lng": 34.70534,
      "zone": "לכיש",
      "countdown": 45
    },
    {
      "name": "גן נר",
      "normalizedName": "גן נר",
      "lat": 32.53107,
      "lng": 35.33383,
      "zone": "תבור",
      "countdown": 60
    },
    {
      "name": "גן שורק",
      "normalizedName": "גן שורק",
      "lat": 31.94478,
      "lng": 34.75851,
      "zone": "השפלה",
      "countdown": 90
    },
    {
      "name": "גן שלמה",
      "normalizedName": "גן שלמה",
      "lat": 31.87826,
      "lng": 34.79787,
      "zone": "דרום השפלה",
      "countdown": 90
    },
    {
      "name": "גן שמואל",
      "normalizedName": "גן שמואל",
      "lat": 32.44898,
      "lng": 34.95247,
      "zone": "מנשה",
      "countdown": 90
    },
    {
      "name": "גנות",
      "normalizedName": "גנות",
      "lat": 32.01775,
      "lng": 34.82873,
      "zone": "השפלה",
      "countdown": 90
    },
    {
      "name": "גנות הדר",
      "normalizedName": "גנות הדר",
      "lat": 32.32068,
      "lng": 34.90097,
      "zone": "חפר",
      "countdown": 90
    },
    {
      "name": "גני הדר",
      "normalizedName": "גני הדר",
      "lat": 31.87854,
      "lng": 34.85404,
      "zone": "השפלה",
      "countdown": 90
    },
    {
      "name": "גני חוגה",
      "normalizedName": "גני חוגה",
      "lat": 32.51739,
      "lng": 35.53924,
      "zone": "בקעת בית שאן",
      "countdown": 60
    },
    {
      "name": "גני טל",
      "normalizedName": "גני טל",
      "lat": 31.78785,
      "lng": 34.79159,
      "zone": "דרום השפלה",
      "countdown": 60
    },
    {
      "name": "גני יוחנן",
      "normalizedName": "גני יוחנן",
      "lat": 31.85603,
      "lng": 34.83271,
      "zone": "השפלה",
      "countdown": 90
    },
    {
      "name": "גני עם",
      "normalizedName": "גני עם",
      "lat": 32.15092,
      "lng": 34.90178,
      "zone": "שרון",
      "countdown": 90
    },
    {
      "name": "גני תקווה",
      "normalizedName": "גני תקווה",
      "lat": 32.06307,
      "lng": 34.87524,
      "zone": "דן",
      "countdown": 90
    },
    {
      "name": "גניגר",
      "normalizedName": "גניגר",
      "lat": 32.6638,
      "lng": 35.25947,
      "zone": "תבור",
      "countdown": 60
    },
    {
      "name": "געש",
      "normalizedName": "געש",
      "lat": 32.22957,
      "lng": 34.82496,
      "zone": "שרון",
      "countdown": 90
    },
    {
      "name": "געתון",
      "normalizedName": "געתון",
      "lat": 33.00615,
      "lng": 35.21375,
      "zone": "קו העימות",
      "countdown": 15
    },
    {
      "name": "גפן",
      "normalizedName": "גפן",
      "lat": 31.74119,
      "lng": 34.87853,
      "zone": "בית שמש",
      "countdown": 60
    },
    {
      "name": "גרופית",
      "normalizedName": "גרופית",
      "lat": 29.93929,
      "lng": 35.06608,
      "zone": "ערבה",
      "countdown": 90
    },
    {
      "name": "גשור",
      "normalizedName": "גשור",
      "lat": 32.81724,
      "lng": 35.7171,
      "zone": "גולן",
      "countdown": 15
    },
    {
      "name": "גשר",
      "normalizedName": "גשר",
      "lat": 32.62,
      "lng": 35.55206,
      "zone": "בקעת בית שאן",
      "countdown": 60
    },
    {
      "name": "גשר הזיו",
      "normalizedName": "גשר הזיו",
      "lat": 33.03965,
      "lng": 35.11183,
      "zone": "קו העימות",
      "countdown": null
    },
    {
      "name": "גת",
      "normalizedName": "גת",
      "lat": 31.62771,
      "lng": 34.79417,
      "zone": "לכיש",
      "countdown": 45
    },
    {
      "name": "גת רימון",
      "normalizedName": "גת רימון",
      "lat": 32.06815,
      "lng": 34.88327,
      "zone": "ירקון",
      "countdown": 90
    },
    {
      "name": "דבוריה",
      "normalizedName": "דבוריה",
      "lat": 32.68757,
      "lng": 35.37295,
      "zone": "תבור",
      "countdown": 60
    },
    {
      "name": "דביר",
      "normalizedName": "דביר",
      "lat": 31.4121,
      "lng": 34.82457,
      "zone": "מרכז הנגב",
      "countdown": 45
    },
    {
      "name": "דברת",
      "normalizedName": "דברת",
      "lat": 32.64677,
      "lng": 35.34982,
      "zone": "תבור",
      "countdown": 60
    },
    {
      "name": "דגניה א",
      "normalizedName": "דגניה א",
      "lat": 32.70794,
      "lng": 35.5746,
      "zone": "גליל תחתון",
      "countdown": 60
    },
    {
      "name": "דגניה ב",
      "normalizedName": "דגניה ב",
      "lat": 32.69954,
      "lng": 35.57541,
      "zone": "גליל תחתון",
      "countdown": 60
    },
    {
      "name": "דוב'ב",
      "normalizedName": "דוב'ב",
      "lat": 33.05438,
      "lng": 35.40958,
      "zone": "קו העימות",
      "countdown": null
    },
    {
      "name": "דולב",
      "normalizedName": "דולב",
      "lat": 31.92646,
      "lng": 35.13391,
      "zone": "שומרון",
      "countdown": 90
    },
    {
      "name": "דור, נחשולים",
      "normalizedName": "דור, נחשולים",
      "lat": 32.61201,
      "lng": 34.92061,
      "zone": "חוף הכרמל",
      "countdown": 60
    },
    {
      "name": "דורות",
      "normalizedName": "דורות",
      "lat": 31.50527,
      "lng": 34.64422,
      "zone": "מערב הנגב",
      "countdown": 30
    },
    {
      "name": "דורות עילית",
      "normalizedName": "דורות עילית",
      "lat": 32.137,
      "lng": 35.06243,
      "zone": "שומרון",
      "countdown": 90
    },
    {
      "name": "דחי",
      "normalizedName": "דחי",
      "lat": 32.6211,
      "lng": 35.34503,
      "zone": "תבור",
      "countdown": 60
    },
    {
      "name": "דימונה",
      "normalizedName": "דימונה",
      "lat": 31.0692,
      "lng": 35.0378,
      "zone": "דרום הנגב",
      "countdown": 90
    },
    {
      "name": "דיר אל-אסד",
      "normalizedName": "דיר אל-אסד",
      "lat": 32.93912,
      "lng": 35.25979,
      "zone": "גליל עליון",
      "countdown": 30
    },
    {
      "name": "דיר חנא",
      "normalizedName": "דיר חנא",
      "lat": 32.86283,
      "lng": 35.36609,
      "zone": "גליל תחתון",
      "countdown": 60
    },
    {
      "name": "דישון",
      "normalizedName": "דישון",
      "lat": 33.08157,
      "lng": 35.51824,
      "zone": "קו העימות",
      "countdown": null
    },
    {
      "name": "דליה",
      "normalizedName": "דליה",
      "lat": 32.59012,
      "lng": 35.07545,
      "zone": "מנשה",
      "countdown": 90
    },
    {
      "name": "דלית אל כרמל",
      "normalizedName": "דלית אל כרמל",
      "lat": 32.69462,
      "lng": 35.05013,
      "zone": "יערות הכרמל",
      "countdown": 60
    },
    {
      "name": "דלתון",
      "normalizedName": "דלתון",
      "lat": 33.01652,
      "lng": 35.49042,
      "zone": "קו העימות",
      "countdown": null
    },
    {
      "name": "דמיידה",
      "normalizedName": "דמיידה",
      "lat": 32.81489,
      "lng": 35.2279,
      "zone": "גליל תחתון",
      "countdown": 60
    },
    {
      "name": "דפנה",
      "normalizedName": "דפנה",
      "lat": 33.22937,
      "lng": 35.63764,
      "zone": "קו העימות",
      "countdown": null
    },
    {
      "name": "דקל",
      "normalizedName": "דקל",
      "lat": 31.19488,
      "lng": 34.34485,
      "zone": "עוטף עזה",
      "countdown": 15
    },
    {
      "name": "האון",
      "normalizedName": "האון",
      "lat": 32.72532,
      "lng": 35.62215,
      "zone": "קצרין",
      "countdown": 30
    },
    {
      "name": "הבונים",
      "normalizedName": "הבונים",
      "lat": 32.63801,
      "lng": 34.93321,
      "zone": "חוף הכרמל",
      "countdown": 60
    },
    {
      "name": "הגבעה הצהובה",
      "normalizedName": "הגבעה הצהובה",
      "lat": 31.65815,
      "lng": 35.11933,
      "zone": "יהודה",
      "countdown": 90
    },
    {
      "name": "הגושרים",
      "normalizedName": "הגושרים",
      "lat": 33.22157,
      "lng": 35.62339,
      "zone": "קו העימות",
      "countdown": null
    },
    {
      "name": "הדר עם",
      "normalizedName": "הדר עם",
      "lat": 32.34946,
      "lng": 34.9015,
      "zone": "חפר",
      "countdown": 90
    },
    {
      "name": "הוד השרון",
      "normalizedName": "הוד השרון",
      "lat": 32.14946,
      "lng": 34.88537,
      "zone": "שרון",
      "countdown": 90
    },
    {
      "name": "הודיה",
      "normalizedName": "הודיה",
      "lat": 31.67165,
      "lng": 34.63744,
      "zone": "מערב לכיש",
      "countdown": 30
    },
    {
      "name": "הודיות",
      "normalizedName": "הודיות",
      "lat": 32.78818,
      "lng": 35.43537,
      "zone": "גליל תחתון",
      "countdown": 60
    },
    {
      "name": "הושעיה",
      "normalizedName": "הושעיה",
      "lat": 32.75833,
      "lng": 35.29205,
      "zone": "תבור",
      "countdown": 60
    },
    {
      "name": "הזורעים",
      "normalizedName": "הזורעים",
      "lat": 32.74506,
      "lng": 35.50394,
      "zone": "גליל תחתון",
      "countdown": 60
    },
    {
      "name": "החווה של אורי כהן",
      "normalizedName": "החווה של אורי כהן",
      "lat": 32.28898,
      "lng": 35.51922,
      "zone": "בקעה",
      "countdown": 90
    },
    {
      "name": "החווה של זוהר",
      "normalizedName": "החווה של זוהר",
      "lat": 31.91712,
      "lng": 35.38277,
      "zone": "שומרון",
      "countdown": 90
    },
    {
      "name": "החווה של יאיא",
      "normalizedName": "החווה של יאיא",
      "lat": 32.14229,
      "lng": 35.41122,
      "zone": "בקעה",
      "countdown": 90
    },
    {
      "name": "החווה של מנחם",
      "normalizedName": "החווה של מנחם",
      "lat": 32.22326,
      "lng": 35.54088,
      "zone": "בקעה",
      "countdown": 90
    },
    {
      "name": "החווה של עשהאל",
      "normalizedName": "החווה של עשהאל",
      "lat": 32.30588,
      "lng": 35.49184,
      "zone": "בקעה",
      "countdown": 90
    },
    {
      "name": "החותרים",
      "normalizedName": "החותרים",
      "lat": 32.75304,
      "lng": 34.95495,
      "zone": "חיפה",
      "countdown": 60
    },
    {
      "name": "היוגב",
      "normalizedName": "היוגב",
      "lat": 32.61055,
      "lng": 35.20662,
      "zone": "תבור",
      "countdown": 60
    },
    {
      "name": "היישוב היהודי חברון",
      "normalizedName": "היישוב היהודי חברון",
      "lat": 31.52474,
      "lng": 35.10737,
      "zone": "יהודה",
      "countdown": 90
    },
    {
      "name": "הילה",
      "normalizedName": "הילה",
      "lat": 33.03592,
      "lng": 35.24428,
      "zone": "קו העימות",
      "countdown": null
    },
    {
      "name": "המעפיל",
      "normalizedName": "המעפיל",
      "lat": 32.37778,
      "lng": 34.98321,
      "zone": "חפר",
      "countdown": 90
    },
    {
      "name": "המרכז האקדמי רופין",
      "normalizedName": "המרכז האקדמי רופין",
      "lat": 32.34206,
      "lng": 34.91219,
      "zone": "חפר",
      "countdown": 90
    },
    {
      "name": "הסוללים",
      "normalizedName": "הסוללים",
      "lat": 32.75084,
      "lng": 35.23877,
      "zone": "תבור",
      "countdown": 60
    },
    {
      "name": "העוגן",
      "normalizedName": "העוגן",
      "lat": 32.36108,
      "lng": 34.92436,
      "zone": "חפר",
      "countdown": 90
    },
    {
      "name": "הר אדר",
      "normalizedName": "הר אדר",
      "lat": 31.82652,
      "lng": 35.12986,
      "zone": "בית שמש",
      "countdown": 90
    },
    {
      "name": "הר ברכה",
      "normalizedName": "הר ברכה",
      "lat": 32.18605,
      "lng": 35.26452,
      "zone": "שומרון",
      "countdown": 90
    },
    {
      "name": "הר גילה",
      "normalizedName": "הר גילה",
      "lat": 31.72256,
      "lng": 35.16859,
      "zone": "יהודה",
      "countdown": 90
    },
    {
      "name": "הר חלוץ",
      "normalizedName": "הר חלוץ",
      "lat": 32.94978,
      "lng": 35.31249,
      "zone": "גליל עליון",
      "countdown": 30
    },
    {
      "name": "הר עמשא",
      "normalizedName": "הר עמשא",
      "lat": 31.34285,
      "lng": 35.10045,
      "zone": "יהודה",
      "countdown": 90
    },
    {
      "name": "הראל",
      "normalizedName": "הראל",
      "lat": 31.8101,
      "lng": 34.95166,
      "zone": "בית שמש",
      "countdown": 90
    },
    {
      "name": "הרדוף",
      "normalizedName": "הרדוף",
      "lat": 32.76238,
      "lng": 35.17451,
      "zone": "תבור",
      "countdown": 60
    },
    {
      "name": "הרצליה - מערב",
      "normalizedName": "הרצליה - מערב",
      "lat": 32.17805,
      "lng": 34.8106,
      "zone": "שרון",
      "countdown": 90
    },
    {
      "name": "הרצליה - מרכז וגליל ים",
      "normalizedName": "הרצליה - מרכז וגליל ים",
      "lat": 32.16783,
      "lng": 34.84217,
      "zone": "שרון",
      "countdown": 90
    },
    {
      "name": "הררית יחד",
      "normalizedName": "הררית יחד",
      "lat": 32.84658,
      "lng": 35.36888,
      "zone": "גליל תחתון",
      "countdown": 60
    },
    {
      "name": "ואדי אל חמאם",
      "normalizedName": "ואדי אל חמאם",
      "lat": 32.82966,
      "lng": 35.48983,
      "zone": "גליל תחתון",
      "countdown": 60
    },
    {
      "name": "ואדי אל נעם דרום",
      "normalizedName": "ואדי אל נעם דרום",
      "lat": 31.13499,
      "lng": 34.82485,
      "zone": "מרכז הנגב",
      "countdown": 60
    },
    {
      "name": "ורד יריחו",
      "normalizedName": "ורד יריחו",
      "lat": 31.82587,
      "lng": 35.43407,
      "zone": "בקעה",
      "countdown": 90
    },
    {
      "name": "ורדון",
      "normalizedName": "ורדון",
      "lat": 31.66403,
      "lng": 34.78153,
      "zone": "לכיש",
      "countdown": 45
    },
    {
      "name": "זבדיאל",
      "normalizedName": "זבדיאל",
      "lat": 31.65875,
      "lng": 34.76001,
      "zone": "לכיש",
      "countdown": 45
    },
    {
      "name": "זוהר",
      "normalizedName": "זוהר",
      "lat": 31.59578,
      "lng": 34.69261,
      "zone": "לכיש",
      "countdown": 30
    },
    {
      "name": "זיקים",
      "normalizedName": "זיקים",
      "lat": 31.60889,
      "lng": 34.52146,
      "zone": "עוטף עזה",
      "countdown": 15
    },
    {
      "name": "זיתן",
      "normalizedName": "זיתן",
      "lat": 31.9753,
      "lng": 34.88928,
      "zone": "השפלה",
      "countdown": 90
    },
    {
      "name": "זכרון יעקב",
      "normalizedName": "זכרון יעקב",
      "lat": 32.56877,
      "lng": 34.9548,
      "zone": "מנשה",
      "countdown": 90
    },
    {
      "name": "זכריה",
      "normalizedName": "זכריה",
      "lat": 31.7102,
      "lng": 34.94429,
      "zone": "בית שמש",
      "countdown": 60
    },
    {
      "name": "זמר",
      "normalizedName": "זמר",
      "lat": 32.36234,
      "lng": 35.03429,
      "zone": "חפר",
      "countdown": 90
    },
    {
      "name": "זמרת, שובה",
      "normalizedName": "זמרת, שובה",
      "lat": 31.45282,
      "lng": 34.54443,
      "zone": "עוטף עזה",
      "countdown": 15
    },
    {
      "name": "זנוח",
      "normalizedName": "זנוח",
      "lat": 31.73212,
      "lng": 35.00088,
      "zone": "בית שמש",
      "countdown": 90
    },
    {
      "name": "זרועה",
      "normalizedName": "זרועה",
      "lat": 31.45921,
      "lng": 34.62229,
      "zone": "מערב הנגב",
      "countdown": 30
    },
    {
      "name": "זרזיר",
      "normalizedName": "זרזיר",
      "lat": 32.72267,
      "lng": 35.21925,
      "zone": "תבור",
      "countdown": 60
    },
    {
      "name": "זרחיה",
      "normalizedName": "זרחיה",
      "lat": 31.68195,
      "lng": 34.74634,
      "zone": "לכיש",
      "countdown": 45
    },
    {
      "name": "זרעית",
      "normalizedName": "זרעית",
      "lat": 33.09898,
      "lng": 35.28449,
      "zone": "קו העימות",
      "countdown": null
    },
    {
      "name": "חבצלת השרון וצוקי ים",
      "normalizedName": "חבצלת השרון וצוקי ים",
      "lat": 32.36046,
      "lng": 34.86147,
      "zone": "חפר",
      "countdown": 90
    },
    {
      "name": "חג'אג'רה",
      "normalizedName": "חג'אג'רה",
      "lat": 32.74087,
      "lng": 35.20483,
      "zone": "תבור",
      "countdown": 60
    },
    {
      "name": "חגור",
      "normalizedName": "חגור",
      "lat": 32.13869,
      "lng": 34.94868,
      "zone": "שרון",
      "countdown": 90
    },
    {
      "name": "חגלה",
      "normalizedName": "חגלה",
      "lat": 32.38669,
      "lng": 34.92553,
      "zone": "חפר",
      "countdown": 90
    },
    {
      "name": "חד נס",
      "normalizedName": "חד נס",
      "lat": 32.93207,
      "lng": 35.64242,
      "zone": "קצרין",
      "countdown": 15
    },
    {
      "name": "חדיד",
      "normalizedName": "חדיד",
      "lat": 31.96816,
      "lng": 34.93385,
      "zone": "ירקון",
      "countdown": 90
    },
    {
      "name": "חדרה - מזרח",
      "normalizedName": "חדרה - מזרח",
      "lat": 32.42515,
      "lng": 34.94982,
      "zone": "מנשה",
      "countdown": 90
    },
    {
      "name": "חדרה - מערב",
      "normalizedName": "חדרה - מערב",
      "lat": 32.4335,
      "lng": 34.88224,
      "zone": "מנשה",
      "countdown": 90
    },
    {
      "name": "חדרה - מרכז",
      "normalizedName": "חדרה - מרכז",
      "lat": 32.43143,
      "lng": 34.92369,
      "zone": "מנשה",
      "countdown": 90
    },
    {
      "name": "חדרה - נווה חיים",
      "normalizedName": "חדרה - נווה חיים",
      "lat": 32.44889,
      "lng": 34.9064,
      "zone": "מנשה",
      "countdown": 90
    },
    {
      "name": "חוות אביה",
      "normalizedName": "חוות אביה",
      "lat": 32.45451,
      "lng": 35.11124,
      "zone": "שומרון",
      "countdown": 90
    },
    {
      "name": "חוות אביחי",
      "normalizedName": "חוות אביחי",
      "lat": 32.04604,
      "lng": 35.03638,
      "zone": "שומרון",
      "countdown": 90
    },
    {
      "name": "חוות אל נווה",
      "normalizedName": "חוות אל נווה",
      "lat": 32.43827,
      "lng": 35.11377,
      "zone": "שומרון",
      "countdown": 90
    },
    {
      "name": "חוות אלחי",
      "normalizedName": "חוות אלחי",
      "lat": 32.2761,
      "lng": 35.15592,
      "zone": "שומרון",
      "countdown": 90
    },
    {
      "name": "חוות ארץ האיילים",
      "normalizedName": "חוות ארץ האיילים",
      "lat": 31.66494,
      "lng": 35.11257,
      "zone": "יהודה",
      "countdown": 90
    },
    {
      "name": "חוות אשכולות",
      "normalizedName": "חוות אשכולות",
      "lat": 31.42164,
      "lng": 34.91512,
      "zone": "יהודה",
      "countdown": 60
    },
    {
      "name": "חוות בניהו",
      "normalizedName": "חוות בניהו",
      "lat": 31.85717,
      "lng": 35.29769,
      "zone": "שומרון",
      "countdown": 90
    },
    {
      "name": "חוות גלעד",
      "normalizedName": "חוות גלעד",
      "lat": 32.19657,
      "lng": 35.18153,
      "zone": "שומרון",
      "countdown": 90
    },
    {
      "name": "חוות גנות",
      "normalizedName": "חוות גנות",
      "lat": 32.15814,
      "lng": 35.43967,
      "zone": "בקעה",
      "countdown": 90
    },
    {
      "name": "חוות דרומא",
      "normalizedName": "חוות דרומא",
      "lat": 31.39688,
      "lng": 35.14585,
      "zone": "יהודה",
      "countdown": 90
    },
    {
      "name": "חוות הרועה העברי",
      "normalizedName": "חוות הרועה העברי",
      "lat": 31.81253,
      "lng": 35.3221,
      "zone": "יהודה",
      "countdown": 90
    },
    {
      "name": "חוות הרשאש",
      "normalizedName": "חוות הרשאש",
      "lat": 32.0422,
      "lng": 35.40313,
      "zone": "בקעה",
      "countdown": 90
    },
    {
      "name": "חוות חנינא",
      "normalizedName": "חוות חנינא",
      "lat": 31.89543,
      "lng": 35.30613,
      "zone": "שומרון",
      "countdown": 90
    },
    {
      "name": "חוות טואמין",
      "normalizedName": "חוות טואמין",
      "lat": 31.37616,
      "lng": 35.12396,
      "zone": "יהודה",
      "countdown": 90
    },
    {
      "name": "חוות טליה",
      "normalizedName": "חוות טליה",
      "lat": 31.36771,
      "lng": 35.12496,
      "zone": "יהודה",
      "countdown": 90
    },
    {
      "name": "חוות יאיר",
      "normalizedName": "חוות יאיר",
      "lat": 32.14351,
      "lng": 35.10656,
      "zone": "שומרון",
      "countdown": 90
    },
    {
      "name": "חוות יד השומר",
      "normalizedName": "חוות יד השומר",
      "lat": 32.33229,
      "lng": 35.49012,
      "zone": "בקעה",
      "countdown": 90
    },
    {
      "name": "חוות יויו",
      "normalizedName": "חוות יויו",
      "lat": 31.3869,
      "lng": 35.15383,
      "zone": "יהודה",
      "countdown": 90
    },
    {
      "name": "חוות ינון",
      "normalizedName": "חוות ינון",
      "lat": 31.85655,
      "lng": 35.31487,
      "zone": "שומרון",
      "countdown": 90
    },
    {
      "name": "חוות מגדלים",
      "normalizedName": "חוות מגדלים",
      "lat": 32.09442,
      "lng": 35.35247,
      "zone": "שומרון",
      "countdown": 90
    },
    {
      "name": "חוות מגנזי",
      "normalizedName": "חוות מגנזי",
      "lat": 31.96123,
      "lng": 35.03496,
      "zone": "שומרון",
      "countdown": 90
    },
    {
      "name": "חוות מדבר חבר",
      "normalizedName": "חוות מדבר חבר",
      "lat": 31.47111,
      "lng": 35.17803,
      "zone": "יהודה",
      "countdown": 90
    },
    {
      "name": "חוות מור ואברהם",
      "normalizedName": "חוות מור ואברהם",
      "lat": 31.36954,
      "lng": 34.96823,
      "zone": "יהודה",
      "countdown": 90
    },
    {
      "name": "חוות מלאכי אברהם",
      "normalizedName": "חוות מלאכי אברהם",
      "lat": 31.48238,
      "lng": 35.17626,
      "zone": "יהודה",
      "countdown": 90
    },
    {
      "name": "חוות מלכיאל",
      "normalizedName": "חוות מלכיאל",
      "lat": 31.90851,
      "lng": 35.37145,
      "zone": "שומרון",
      "countdown": 90
    },
    {
      "name": "חוות מנחם",
      "normalizedName": "חוות מנחם",
      "lat": 31.36427,
      "lng": 35.16875,
      "zone": "ים המלח",
      "countdown": 90
    },
    {
      "name": "חוות מעלה אהוביה",
      "normalizedName": "חוות מעלה אהוביה",
      "lat": 31.94948,
      "lng": 35.3363,
      "zone": "שומרון",
      "countdown": 90
    },
    {
      "name": "חוות מקנה יהודה",
      "normalizedName": "חוות מקנה יהודה",
      "lat": 31.36257,
      "lng": 35.03708,
      "zone": "יהודה",
      "countdown": 90
    },
    {
      "name": "חוות מרום שמואל",
      "normalizedName": "חוות מרום שמואל",
      "lat": 32.20541,
      "lng": 35.39278,
      "zone": "שומרון",
      "countdown": 90
    },
    {
      "name": "חוות נווה צוף",
      "normalizedName": "חוות נווה צוף",
      "lat": 32.00702,
      "lng": 35.14587,
      "zone": "שומרון",
      "countdown": 90
    },
    {
      "name": "חוות נוף אב\"י",
      "normalizedName": "חוות נוף אב\"י",
      "lat": 32.09098,
      "lng": 35.15038,
      "zone": "שומרון",
      "countdown": 90
    },
    {
      "name": "חוות נחל שילה",
      "normalizedName": "חוות נחל שילה",
      "lat": 32.04812,
      "lng": 35.28196,
      "zone": "שומרון",
      "countdown": 90
    },
    {
      "name": "חוות נחלת אבות",
      "normalizedName": "חוות נחלת אבות",
      "lat": 31.57717,
      "lng": 35.19697,
      "zone": "יהודה",
      "countdown": 90
    },
    {
      "name": "חוות נחלת צבי",
      "normalizedName": "חוות נחלת צבי",
      "lat": 31.87105,
      "lng": 35.2987,
      "zone": "שומרון",
      "countdown": 90
    },
    {
      "name": "חוות עדן",
      "normalizedName": "חוות עדן",
      "lat": 31.70001,
      "lng": 35.141,
      "zone": "יהודה",
      "countdown": 60
    },
    {
      "name": "חוות עולם חסד",
      "normalizedName": "חוות עולם חסד",
      "lat": 32.00419,
      "lng": 35.03319,
      "zone": "שומרון",
      "countdown": 90
    },
    {
      "name": "חוות עמיאל",
      "normalizedName": "חוות עמיאל",
      "lat": 32.39125,
      "lng": 35.46468,
      "zone": "בקעה",
      "countdown": 90
    },
    {
      "name": "חוות פריאל",
      "normalizedName": "חוות פריאל",
      "lat": 32.07907,
      "lng": 35.41626,
      "zone": "בקעה",
      "countdown": 90
    },
    {
      "name": "חוות צאן קדר",
      "normalizedName": "חוות צאן קדר",
      "lat": 31.73625,
      "lng": 35.32004,
      "zone": "יהודה",
      "countdown": 90
    },
    {
      "name": "חוות צרידה",
      "normalizedName": "חוות צרידה",
      "lat": 32.05591,
      "lng": 35.06091,
      "zone": "שומרון",
      "countdown": 90
    },
    {
      "name": "חוות קשואלה",
      "normalizedName": "חוות קשואלה",
      "lat": 31.6756,
      "lng": 35.10224,
      "zone": "יהודה",
      "countdown": 90
    },
    {
      "name": "חוות ראש תאנה",
      "normalizedName": "חוות ראש תאנה",
      "lat": 32.00444,
      "lng": 35.37126,
      "zone": "שומרון",
      "countdown": 90
    },
    {
      "name": "חוות שדה",
      "normalizedName": "חוות שדה",
      "lat": 32.18857,
      "lng": 35.31043,
      "zone": "שומרון",
      "countdown": 90
    },
    {
      "name": "חוות שוביאל",
      "normalizedName": "חוות שוביאל",
      "lat": 32.07886,
      "lng": 35.13583,
      "zone": "שומרון",
      "countdown": 90
    },
    {
      "name": "חוות שחרית",
      "normalizedName": "חוות שחרית",
      "lat": 32.08916,
      "lng": 35.0751,
      "zone": "שומרון",
      "countdown": 90
    },
    {
      "name": "חוות תלם צפון",
      "normalizedName": "חוות תלם צפון",
      "lat": 31.57065,
      "lng": 35.03719,
      "zone": "יהודה",
      "countdown": 90
    },
    {
      "name": "חולדה",
      "normalizedName": "חולדה",
      "lat": 31.83098,
      "lng": 34.8832,
      "zone": "השפלה",
      "countdown": 90
    },
    {
      "name": "חולון",
      "normalizedName": "חולון",
      "lat": 32.01472,
      "lng": 34.78648,
      "zone": "דן",
      "countdown": 90
    },
    {
      "name": "חולית",
      "normalizedName": "חולית",
      "lat": 31.23015,
      "lng": 34.32622,
      "zone": "עוטף עזה",
      "countdown": 15
    },
    {
      "name": "חולתה",
      "normalizedName": "חולתה",
      "lat": 33.05114,
      "lng": 35.60965,
      "zone": "גליל עליון",
      "countdown": 30
    },
    {
      "name": "חומש",
      "normalizedName": "חומש",
      "lat": 32.31007,
      "lng": 35.1931,
      "zone": "שומרון",
      "countdown": 90
    },
    {
      "name": "חוסן",
      "normalizedName": "חוסן",
      "lat": 32.9993,
      "lng": 35.29561,
      "zone": "קו העימות",
      "countdown": 15
    },
    {
      "name": "חוסנייה",
      "normalizedName": "חוסנייה",
      "lat": 32.90087,
      "lng": 35.3191,
      "zone": "גליל תחתון",
      "countdown": 60
    },
    {
      "name": "חוף אכזיב",
      "normalizedName": "חוף אכזיב",
      "lat": 33.05264,
      "lng": 35.10334,
      "zone": "קו העימות",
      "countdown": null
    },
    {
      "name": "חוף בצת",
      "normalizedName": "חוף בצת",
      "lat": 33.08018,
      "lng": 35.10662,
      "zone": "קו העימות",
      "countdown": null
    },
    {
      "name": "חוף זיקים",
      "normalizedName": "חוף זיקים",
      "lat": 31.6164,
      "lng": 34.50803,
      "zone": "עוטף עזה",
      "countdown": 15
    },
    {
      "name": "חוף קליה",
      "normalizedName": "חוף קליה",
      "lat": 31.76086,
      "lng": 35.49962,
      "zone": "בקעה",
      "countdown": 90
    },
    {
      "name": "חופית",
      "normalizedName": "חופית",
      "lat": 32.38577,
      "lng": 34.87824,
      "zone": "חפר",
      "countdown": 90
    },
    {
      "name": "חוקוק",
      "normalizedName": "חוקוק",
      "lat": 32.88063,
      "lng": 35.49529,
      "zone": "גליל תחתון",
      "countdown": 60
    },
    {
      "name": "חורה",
      "normalizedName": "חורה",
      "lat": 31.29661,
      "lng": 34.93344,
      "zone": "דרום הנגב",
      "countdown": 90
    },
    {
      "name": "חורפיש",
      "normalizedName": "חורפיש",
      "lat": 33.02181,
      "lng": 35.34455,
      "zone": "קו העימות",
      "countdown": null
    },
    {
      "name": "חורשים",
      "normalizedName": "חורשים",
      "lat": 32.13806,
      "lng": 34.97051,
      "zone": "שרון",
      "countdown": 90
    },
    {
      "name": "חזון",
      "normalizedName": "חזון",
      "lat": 32.90535,
      "lng": 35.39614,
      "zone": "גליל תחתון",
      "countdown": 60
    },
    {
      "name": "חיבת ציון",
      "normalizedName": "חיבת ציון",
      "lat": 32.39754,
      "lng": 34.91352,
      "zone": "חפר",
      "countdown": 90
    },
    {
      "name": "חיננית",
      "normalizedName": "חיננית",
      "lat": 32.48021,
      "lng": 35.17193,
      "zone": "שומרון",
      "countdown": 90
    },
    {
      "name": "חיפה - בת גלים ק.אליעזר",
      "normalizedName": "חיפה - בת גלים ק.אליעזר",
      "lat": 32.82775,
      "lng": 34.98012,
      "zone": "חיפה",
      "countdown": 60
    },
    {
      "name": "חיפה - כרמל, הדר ועיר תחתית",
      "normalizedName": "חיפה - כרמל, הדר ועיר תחתית",
      "lat": 32.80682,
      "lng": 34.98813,
      "zone": "חיפה",
      "countdown": 60
    },
    {
      "name": "חיפה - מערב",
      "normalizedName": "חיפה - מערב",
      "lat": 32.80208,
      "lng": 34.96264,
      "zone": "חיפה",
      "countdown": 60
    },
    {
      "name": "חיפה - מפרץ",
      "normalizedName": "חיפה - מפרץ",
      "lat": 32.80496,
      "lng": 35.05211,
      "zone": "חיפה",
      "countdown": 60
    },
    {
      "name": "חיפה - נווה שאנן ורמות כרמל",
      "normalizedName": "חיפה - נווה שאנן ורמות כרמל",
      "lat": 32.78076,
      "lng": 35.00212,
      "zone": "חיפה",
      "countdown": 60
    },
    {
      "name": "חיפה - קריית חיים ושמואל",
      "normalizedName": "חיפה - קריית חיים ושמואל",
      "lat": 32.82839,
      "lng": 35.06482,
      "zone": "חיפה",
      "countdown": 60
    },
    {
      "name": "חירן",
      "normalizedName": "חירן",
      "lat": 31.34704,
      "lng": 35.06026,
      "zone": "יהודה",
      "countdown": 90
    },
    {
      "name": "חלץ",
      "normalizedName": "חלץ",
      "lat": 31.57746,
      "lng": 34.65709,
      "zone": "מערב לכיש",
      "countdown": 30
    },
    {
      "name": "חמד",
      "normalizedName": "חמד",
      "lat": 32.0183,
      "lng": 34.84305,
      "zone": "השפלה",
      "countdown": 90
    },
    {
      "name": "חמדיה",
      "normalizedName": "חמדיה",
      "lat": 32.52061,
      "lng": 35.5207,
      "zone": "בקעת בית שאן",
      "countdown": 60
    },
    {
      "name": "חמדת",
      "normalizedName": "חמדת",
      "lat": 32.25179,
      "lng": 35.52686,
      "zone": "בקעה",
      "countdown": 90
    },
    {
      "name": "חמדת ימים",
      "normalizedName": "חמדת ימים",
      "lat": 32.94875,
      "lng": 35.42492,
      "zone": "גליל עליון",
      "countdown": 30
    },
    {
      "name": "חמרה",
      "normalizedName": "חמרה",
      "lat": 32.20367,
      "lng": 35.42631,
      "zone": "בקעה",
      "countdown": 90
    },
    {
      "name": "חמת גדר",
      "normalizedName": "חמת גדר",
      "lat": 32.68444,
      "lng": 35.66629,
      "zone": "קצרין",
      "countdown": 15
    },
    {
      "name": "חניאל",
      "normalizedName": "חניאל",
      "lat": 32.33329,
      "lng": 34.94951,
      "zone": "חפר",
      "countdown": 90
    },
    {
      "name": "חניון רעים אנדרטת הנובה",
      "normalizedName": "חניון רעים אנדרטת הנובה",
      "lat": 31.39791,
      "lng": 34.46877,
      "zone": "עוטף עזה",
      "countdown": 15
    },
    {
      "name": "חניתה",
      "normalizedName": "חניתה",
      "lat": 33.08744,
      "lng": 35.17433,
      "zone": "קו העימות",
      "countdown": null
    },
    {
      "name": "חנתון",
      "normalizedName": "חנתון",
      "lat": 32.7839,
      "lng": 35.24454,
      "zone": "תבור",
      "countdown": 60
    },
    {
      "name": "חספין",
      "normalizedName": "חספין",
      "lat": 32.84557,
      "lng": 35.79284,
      "zone": "גולן",
      "countdown": null
    },
    {
      "name": "חפץ חיים",
      "normalizedName": "חפץ חיים",
      "lat": 31.78903,
      "lng": 34.80138,
      "zone": "דרום השפלה",
      "countdown": 60
    },
    {
      "name": "חצב",
      "normalizedName": "חצב",
      "lat": 31.77762,
      "lng": 34.77018,
      "zone": "לכיש",
      "countdown": 60
    },
    {
      "name": "חצבה",
      "normalizedName": "חצבה",
      "lat": 30.76994,
      "lng": 35.27693,
      "zone": "ערבה",
      "countdown": 90
    },
    {
      "name": "חצור",
      "normalizedName": "חצור",
      "lat": 31.77464,
      "lng": 34.71867,
      "zone": "לכיש",
      "countdown": 45
    },
    {
      "name": "חצור הגלילית",
      "normalizedName": "חצור הגלילית",
      "lat": 32.98418,
      "lng": 35.54792,
      "zone": "גליל עליון",
      "countdown": 30
    },
    {
      "name": "חצרים",
      "normalizedName": "חצרים",
      "lat": 31.23938,
      "lng": 34.71383,
      "zone": "מרכז הנגב",
      "countdown": 60
    },
    {
      "name": "חרב לאת",
      "normalizedName": "חרב לאת",
      "lat": 32.40104,
      "lng": 34.91977,
      "zone": "חפר",
      "countdown": 90
    },
    {
      "name": "חרוצים",
      "normalizedName": "חרוצים",
      "lat": 32.22781,
      "lng": 34.86453,
      "zone": "שרון",
      "countdown": 90
    },
    {
      "name": "חרות",
      "normalizedName": "חרות",
      "lat": 32.23922,
      "lng": 34.91625,
      "zone": "חפר",
      "countdown": 90
    },
    {
      "name": "חריש",
      "normalizedName": "חריש",
      "lat": 32.45968,
      "lng": 35.04924,
      "zone": "ואדי ערה",
      "countdown": 90
    },
    {
      "name": "חרמש",
      "normalizedName": "חרמש",
      "lat": 32.42334,
      "lng": 35.11866,
      "zone": "שומרון",
      "countdown": 90
    },
    {
      "name": "חרמש דרום",
      "normalizedName": "חרמש דרום",
      "lat": 32.41624,
      "lng": 35.12166,
      "zone": "שומרון",
      "countdown": 90
    },
    {
      "name": "חרשה",
      "normalizedName": "חרשה",
      "lat": 31.94425,
      "lng": 35.13754,
      "zone": "שומרון",
      "countdown": 90
    },
    {
      "name": "חרשים",
      "normalizedName": "חרשים",
      "lat": 32.95678,
      "lng": 35.32782,
      "zone": "גליל עליון",
      "countdown": 30
    },
    {
      "name": "חשמונאים",
      "normalizedName": "חשמונאים",
      "lat": 31.93056,
      "lng": 35.01827,
      "zone": "השפלה",
      "countdown": 90
    },
    {
      "name": "טבריה",
      "normalizedName": "טבריה",
      "lat": 32.78416,
      "lng": 35.52044,
      "zone": "גליל תחתון",
      "countdown": 60
    },
    {
      "name": "טובא זנגריה",
      "normalizedName": "טובא זנגריה",
      "lat": 32.96533,
      "lng": 35.59214,
      "zone": "גליל עליון",
      "countdown": 30
    },
    {
      "name": "טורעאן",
      "normalizedName": "טורעאן",
      "lat": 32.77662,
      "lng": 35.37658,
      "zone": "גליל תחתון",
      "countdown": 60
    },
    {
      "name": "טייבה",
      "normalizedName": "טייבה",
      "lat": 32.26352,
      "lng": 35.00606,
      "zone": "חפר",
      "countdown": 90
    },
    {
      "name": "טייבה בגלבוע",
      "normalizedName": "טייבה בגלבוע",
      "lat": 32.60309,
      "lng": 35.44406,
      "zone": "בקעת בית שאן",
      "countdown": 60
    },
    {
      "name": "טירה",
      "normalizedName": "טירה",
      "lat": 32.23433,
      "lng": 34.95798,
      "zone": "חפר",
      "countdown": 90
    },
    {
      "name": "טירת יהודה",
      "normalizedName": "טירת יהודה",
      "lat": 32.01312,
      "lng": 34.9333,
      "zone": "ירקון",
      "countdown": 90
    },
    {
      "name": "טירת כרמל",
      "normalizedName": "טירת כרמל",
      "lat": 32.76113,
      "lng": 34.97161,
      "zone": "חיפה",
      "countdown": 60
    },
    {
      "name": "טירת צבי",
      "normalizedName": "טירת צבי",
      "lat": 32.4221,
      "lng": 35.52738,
      "zone": "בקעת בית שאן",
      "countdown": 60
    },
    {
      "name": "טל - אל",
      "normalizedName": "טל - אל",
      "lat": 32.92622,
      "lng": 35.17859,
      "zone": "גליל עליון",
      "countdown": 30
    },
    {
      "name": "טל מנשה",
      "normalizedName": "טל מנשה",
      "lat": 32.4833,
      "lng": 35.16108,
      "zone": "שומרון",
      "countdown": 90
    },
    {
      "name": "טל שחר",
      "normalizedName": "טל שחר",
      "lat": 31.80487,
      "lng": 34.90105,
      "zone": "בית שמש",
      "countdown": 90
    },
    {
      "name": "טללים",
      "normalizedName": "טללים",
      "lat": 30.99049,
      "lng": 34.77148,
      "zone": "דרום הנגב",
      "countdown": 90
    },
    {
      "name": "טלמון",
      "normalizedName": "טלמון",
      "lat": 31.93838,
      "lng": 35.1385,
      "zone": "שומרון",
      "countdown": 90
    },
    {
      "name": "טמרה",
      "normalizedName": "טמרה",
      "lat": 32.84704,
      "lng": 35.20469,
      "zone": "גליל תחתון",
      "countdown": 60
    },
    {
      "name": "טמרה בגלבוע",
      "normalizedName": "טמרה בגלבוע",
      "lat": 32.63134,
      "lng": 35.40188,
      "zone": "תבור",
      "countdown": 60
    },